id,name,type,address,lng,lat,pname,cityname,adminname,biz_ext_rating,biz_ext_star,telephone,photourl1,photourl2,photourl3
B02F37VQJG,宝利来国际大酒店,住宿服务;宾馆酒店;五星级宾馆,福永大道1号,113.827368,22.672588,广东省,深圳市,宝安区,4.6,5,0755-27388888,http://store.is.autonavi.com/showpic/b30c182698ee144c7b5caacc2bc0f609,http://store.is.autonavi.com/showpic/190eb8e4bdc2e58c113117b8eb6b87c1,http://store.is.autonavi.com/showpic/501a723143b264a69b75ce0ef749aaf3
B02F38IEP8,芭堤雅酒店,住宿服务;宾馆酒店;四星级宾馆,大梅沙环梅路20号,114.310088,22.600057,广东省,深圳市,盐田区,4.2,4,0755-25252888,http://store.is.autonavi.com/showpic/5a5c55c8811f58181a0d7bf2e7d6d48d,http://store.is.autonavi.com/showpic/a9c5749ae623a5cffabc7c03cdb8c9f9,http://store.is.autonavi.com/showpic/c501546b17974aa318215ec84f7ad196
B02F300032,小梅沙大酒店,住宿服务;宾馆酒店;三星级宾馆,葵盐路23号,114.329972,22.602649,广东省,深圳市,盐田区,4.2,3,0755-25035888;0755-25035222,http://store.is.autonavi.com/showpic/80ab51036261a97359e587fffcd1bc69,http://store.is.autonavi.com/showpic/7d614238b9ce920d4ef8e1e5a190616c,http://store.is.autonavi.com/showpic/2626780d4bf5414ff01e04bc19e21164
B02F300926,上海宾馆,住宿服务;宾馆酒店;三星级宾馆,深南中路3032号,114.081965,22.541007,广东省,深圳市,福田区,4.6,3,0755-83365288,http://store.is.autonavi.com/showpic/0beaf7afe83216d84e4c43573e0423e9,http://store.is.autonavi.com/showpic/01077a54ef5c70d95f5520d8d927491d,http://store.is.autonavi.com/showpic/da4fc1291a6754b89cc63f45d1c125a9
B02F37SACJ,金鹏大酒店(深圳龙华地铁站店),住宿服务;宾馆酒店;三星级宾馆,龙华街道人民路252号金鹏商业广场,114.023952,22.653037,广东省,深圳市,龙华区,4.0,3,0755-27700000,http://store.is.autonavi.com/showpic/5ee91b188b0ac6a06bb6ccf82add8ef7,http://store.is.autonavi.com/showpic/dcac87bb0552be6e0e6b6f645379c6fe,http://store.is.autonavi.com/showpic/a79c5d980fc37a5c380ea144307cbfe2
B02F302426,中南海滨大酒店,住宿服务;宾馆酒店;四星级宾馆,南新路3125号,113.919643,22.537961,广东省,深圳市,南山区,4.3,4,0755-26088736,http://store.is.autonavi.com/showpic/7d6326f3ffb13411a2f2651d68839041,http://store.is.autonavi.com/showpic/7df3b8f4b4e3ee67556f8e4b6eee70cd,http://store.is.autonavi.com/showpic/edee715a0f14d0a10cb5a992fa426267
B02F38IHAS,芙蓉宾馆(东门南路),住宿服务;宾馆酒店;三星级宾馆,东门南路2019号,114.123370,22.539870,广东省,深圳市,罗湖区,4.3,3,0755-82235966;0755-82251855,http://store.is.autonavi.com/showpic/2b143799f2152987c3352e511ed77d12,http://store.is.autonavi.com/showpic/39785a5c747abb50e40202a9a0495b30,http://store.is.autonavi.com/showpic/32c714d6a958e4bc2a0a1c87464fa803
B02F37TDX9,火车站大酒店(商务楼),住宿服务;宾馆酒店;三星级宾馆,建设路1008号深圳站1F层,114.117242,22.53175,广东省,深圳市,罗湖区,4.2,3,0755-82321168,http://store.is.autonavi.com/showpic/3ec83b7c8e7269dd2eef9c38b9570e13,http://store.is.autonavi.com/showpic/d6eda1236563164757731f9bf6e8cdbc,http://store.is.autonavi.com/showpic/cc1bdccac21f79c49ba2cfb9ecffbccb
B02F305WWO,湖北宾馆,住宿服务;宾馆酒店;三星级宾馆,解放路3034号,114.11268,22.544448,广东省,深圳市,罗湖区,4.2,3,0755-25560888,http://store.is.autonavi.com/showpic/75b01ccf6aca71f31ee246964d261c3c,http://store.is.autonavi.com/showpic/973ea7a9402ab7ca52f24bbe8c16c41c,http://store.is.autonavi.com/showpic/aed69cbdef39ea45387ea0c63d25b372
B02F301F7C,恒丰海悦国际酒店,住宿服务;宾馆酒店;五星级宾馆,宝民二路127号,113.882003,22.580564,广东省,深圳市,宝安区,4.5,5,0755-27922222,http://store.is.autonavi.com/showpic/904231d4c66cb12a5c920c7fd423458c,http://store.is.autonavi.com/showpic/0ccb36ab9bc6bb371706997fe4b0a56b,http://store.is.autonavi.com/showpic/b78fd9d5a6c5bcbc7c770b358ba1ba4d
B02F305XK7,河东宾馆,住宿服务;宾馆酒店;三星级宾馆,沿河东路19号(深南东路人民桥南侧世界金融中心旁),114.113573,22.540877,广东省,深圳市,罗湖区,4.1,3,0755-82477880,http://store.is.autonavi.com/showpic/167b6e3ab53674ebf7316c7df5da1365,http://store.is.autonavi.com/showpic/bb9ff5b6c2478ae72b5e0adbf8ccf64a,http://store.is.autonavi.com/showpic/ce9afbbf754f2221d714872e1f809d84
B02F37TQBS,大梅沙京基喜来登度假酒店,住宿服务;宾馆酒店;五星级宾馆,大梅沙盐葵路9号,114.314603,22.597782,广东省,深圳市,盐田区,4.5,5,0755-22173719;0755-88886688,http://store.is.autonavi.com/showpic/2d7ef930e40ac73c8409ba6489e655ff,http://store.is.autonavi.com/showpic/418bdf78d997cbb6e045e1db815a6aea,http://store.is.autonavi.com/showpic/53518eff17e5cf2725e1ea032912e8f1
B02F305J0D,彭年酒店,住宿服务;宾馆酒店;五星级宾馆,嘉宾路2002号彭年广场写字楼,114.122461,22.54111,广东省,深圳市,罗湖区,4.6,5,0755-25185888,http://store.is.autonavi.com/showpic/0fdb2fe618188475c5dd83184bd55bb6,http://store.is.autonavi.com/showpic/ef876ff0b6b1cf1287e5a4ed06b8af88,http://store.is.autonavi.com/showpic/85b36a19111800cd41ad6c361c3a0556
B02F30095C,阳光酒店,住宿服务;宾馆酒店;五星级宾馆,嘉宾路2001号,114.122924,22.540046,广东省,深圳市,罗湖区,4.8,5,0755-82233888;0755-82295919,http://store.is.autonavi.com/showpic/f784a46a96431f4743943ef0029c85de,http://store.is.autonavi.com/showpic/eb640f899d71b8ad3af70c523d1802ab,http://store.is.autonavi.com/showpic/3e287f51a3864a231fae30837bcba6ff
B02F30088E,海燕大酒店,住宿服务;宾馆酒店;三星级宾馆,迎春路1号,114.117517,22.539871,广东省,深圳市,罗湖区,4.3,3,0755-82232828;0755-82221833;0755-82794769,http://store.is.autonavi.com/showpic/fc6c1429dfe28c5f41979a36a8e83175,http://store.is.autonavi.com/showpic/1172e799a2dbf2c437830151b26fc610,http://store.is.autonavi.com/showpic/b8652610361da0e296aa80a869e6e3ff
B02F306B6Y,深圳易尚北方大酒店,住宿服务;宾馆酒店;三星级宾馆,深南中路3003号北方大厦13-22层,114.084976,22.540074,广东省,深圳市,福田区,4.3,3,0755-83278001;0755-83278002;0755-83278003,http://store.is.autonavi.com/showpic/e5fb957ed2112f40fe83f344a08d5fae,http://store.is.autonavi.com/showpic/af6fc495723a25ec08f8d7d8a20041c7,http://store.is.autonavi.com/showpic/64b12e04ba51089ec58f9300d745ffcc
B02F37VRM3,茗兰酒店(碧新路),住宿服务;宾馆酒店;三星级宾馆,碧新路龙岗段2348号,114.264391,22.743032,广东省,深圳市,龙岗区,4.2,3,0755-84840888;18123808160,http://store.is.autonavi.com/showpic/180543820a12291423fc2df6492b28de,http://store.is.autonavi.com/showpic/dda6711af36bfb0a2388ed6d2298d9a7,http://store.is.autonavi.com/showpic/e02f92e387788cb953cdf1ac381dc148
B02F37UPSW,百合酒店,住宿服务;宾馆酒店;五星级宾馆,布吉百鸽路,114.120627,22.598473,广东省,深圳市,龙岗区,4.5,5,0755-89969999;0755-89969988,http://store.is.autonavi.com/showpic/fe28036181e45b9426b48141258282ac,http://store.is.autonavi.com/showpic/0cad79271e6f556fba64ec47d0e04981,http://store.is.autonavi.com/showpic/9d16c9d457a733dca90fbb629968c22a
B02F30086B,富临大酒店,住宿服务;宾馆酒店;五星级宾馆,和平路1085号,114.115799,22.53125,广东省,深圳市,罗湖区,4.4,5,0755-25586333,http://store.is.autonavi.com/showpic/c7cf106d75d58984c7b89784dc47b62d,http://store.is.autonavi.com/showpic/72527402044d064a8dcf7e961f9b16c0,http://store.is.autonavi.com/showpic/11ce47967bb85e455637995baf22ee44
B02F302508,名兰苑酒店,住宿服务;宾馆酒店;三星级宾馆,蛇口工业八路西270号(南海大道与工业八路交叉口西50米处),113.919039,22.501352,广东省,深圳市,南山区,4.1,3,0755-26811888,http://store.is.autonavi.com/showpic/6de58d4bab0175abec752288bafddc84,http://store.is.autonavi.com/showpic/e4b28c1b06b35a5f7b4b0589478f2e65,http://store.is.autonavi.com/showpic/88f613eb06afcba04c524879dcbef8cf
B02F30081E,深圳中航城格兰云天大酒店,住宿服务;宾馆酒店;四星级宾馆,深南中路3024号,114.082587,22.541127,广东省,深圳市,福田区,4.6,4,0755-83689999,http://store.is.autonavi.com/showpic/ddd61e6a37445fe3ac95df5d89588d9e,http://store.is.autonavi.com/showpic/92f2bdcdb6d5d7f275cf7898a34ad90f,http://store.is.autonavi.com/showpic/acbe1a64003afc7eab0dd902c80296f7
B02F37T50N,深圳华侨城洲际大酒店,住宿服务;宾馆酒店;五星级宾馆,华侨城深南大道9009号,113.984581,22.532356,广东省,深圳市,南山区,4.7,5,0755-33993388,http://store.is.autonavi.com/showpic/6cdf95008c25d384d1d3fcd3472fe30a,http://store.is.autonavi.com/showpic/cd4ab450694b865f7015d7f0a2bb679c,http://store.is.autonavi.com/showpic/678cdd175cc8c0a52e41096441c09b94
B02F300966,深圳粤海酒店(达人推荐酒店),住宿服务;宾馆酒店;三星级宾馆,深南东路3033号(罗湖口岸火车站国贸大厦旁),114.120863,22.543208,广东省,深圳市,罗湖区,4.3,3,0755-82228339;0755-25565998,http://store.is.autonavi.com/showpic/557c3e8588491bc66ad9ac7929543e6d,http://store.is.autonavi.com/showpic/a50dfe765073bdab8d48e494893835cd,http://store.is.autonavi.com/showpic/e726a1b552cd7ba5a8ed3e9bfc618ad2
B02F37VI56,深圳星河丽思卡尔顿酒店,住宿服务;宾馆酒店;五星级宾馆,福华三路116号,114.061548,22.533721,广东省,深圳市,福田区,4.8,5,0755-22222222,http://store.is.autonavi.com/showpic/1c91553512ddd05325d8a0e9c6444d91,http://store.is.autonavi.com/showpic/a0c049e0edb8bd6d5016c355e323e27d,http://store.is.autonavi.com/showpic/6cd725aca978e9e42a3748e0ff95472b
B02F37WRKC,深圳威尼斯睿途酒店,住宿服务;宾馆酒店;五星级宾馆,华侨城深南大道9026号,113.977456,22.536681,广东省,深圳市,南山区,4.6,5,0755-26936888,http://store.is.autonavi.com/showpic/caae763f9f446da980f55abc4ec2455b,http://store.is.autonavi.com/showpic/be230fbc8f9dc2170ef2e9e35fdc753b,http://store.is.autonavi.com/showpic/3fcc420be49b318090d624993c11d01f
B02F37WL14,深圳香格里拉大酒店(建设路店),住宿服务;宾馆酒店;五星级宾馆,建设路1002号(火车站东侧),114.11834,22.533591,广东省,深圳市,罗湖区,4.4,5,0755-82330888,http://store.is.autonavi.com/showpic/a915368c4dc457ae4c9141400041d5bb,http://store.is.autonavi.com/showpic/2cfe9454c820e80e0724eb860e24803c,http://store.is.autonavi.com/showpic/df97d67b4fdd43dc9dbb6171b20c3c20
B02F37VC2Z,长安大酒店(深南东路),住宿服务;宾馆酒店;四星级宾馆,深南东路1133号,114.132059,22.544654,广东省,深圳市,罗湖区,4.3,3,0755-82303333,http://store.is.autonavi.com/showpic/25f2140ed7fc4f62e8b827de6a3aca3d,http://store.is.autonavi.com/showpic/77fafa1bb3806a50a39484272be7d9f2,http://store.is.autonavi.com/showpic/4f46ace9d5f046f17319342db254bee5
B02F38IEQ0,深航国际酒店,住宿服务;宾馆酒店;五星级宾馆,深南大道6035号深航大厦,114.019262,22.533984,广东省,深圳市,福田区,4.7,5,0755-88819999;8008304700,http://store.is.autonavi.com/showpic/22201d46a7b65ffb21ea640c98b7ea47,http://store.is.autonavi.com/showpic/b06e36956e54429747479ae5697bf9a7,http://store.is.autonavi.com/showpic/a879404104a1526dd4ee7b9ee0b43bd9
B02F3029F6,宝晖商务酒店,住宿服务;宾馆酒店;四星级宾馆,自由路2号,113.895929,22.563381,广东省,深圳市,宝安区,4.3,4,0755-61158888,http://store.is.autonavi.com/showpic/1ca0b08b18e4a851e9f6f11d3a9ad54b,http://store.is.autonavi.com/showpic/2d575e07961b4c9b02e075452308606f,http://store.is.autonavi.com/showpic/dfa304c01581ad6bbdb6417938207f24
B02F37VD9E,竹园宾馆,住宿服务;宾馆酒店;三星级宾馆,东门北路2079号,114.134336,22.559112,广东省,深圳市,罗湖区,4.2,3,0755-25533138,http://store.is.autonavi.com/showpic/b09ea3f4d80305a5c52281705a64902c,http://store.is.autonavi.com/showpic/63fd28a11d95af59413980b5d22a4525,http://store.is.autonavi.com/showpic/875c07b66f2cad49c2866661a8636e43
B02F30A1CY,君逸酒店,住宿服务;宾馆酒店;四星级宾馆,横岗为民路8号,114.196838,22.645554,广东省,深圳市,龙岗区,4.5,4,0755-28661888,http://store.is.autonavi.com/showpic/0110a7b3af75f3f76eee7d478cb29520,http://store.is.autonavi.com/showpic/98638eb5a337a70abda1fbb071b86d9a,http://store.is.autonavi.com/showpic/8d45d2f563d48de240f27c12ce2be9b1
B02F302A68,深圳东华假日酒店,住宿服务;宾馆酒店;四星级宾馆,南海大道东华园2307号山东大厦,113.928361,22.520994,广东省,深圳市,南山区,4.4,4,0755-86193999;0755-26416688,http://store.is.autonavi.com/showpic/110879e2c4cee5b5199a6e954a8dff03,http://store.is.autonavi.com/showpic/2ecea67b79ad3e0d1028a3541e38843c,http://store.is.autonavi.com/showpic/b4ff7a6bf47426f38e052d570a525dd2
B02F38IFD4,深圳观澜格兰云天国际酒店,住宿服务;宾馆酒店;五星级宾馆,观澜大道环观南路,114.043121,22.692586,广东省,深圳市,龙华区,4.7,5,0755-28059999,http://store.is.autonavi.com/showpic/373de3e0e5ff1ef07f32a874c333236e,http://store.is.autonavi.com/showpic/4ba231ae85c6f4839f0b642c8259fdae,http://store.is.autonavi.com/showpic/6aab4f835fc6e1074c6c391718ecdab0
B02F37U6P7,求水山酒店,住宿服务;宾馆酒店;五星级宾馆,南园路2号,114.143874,22.600381,广东省,深圳市,龙岗区,4.5,5,0755-88888999,http://store.is.autonavi.com/showpic/a59a060372a415eb680351bb018fedef,http://store.is.autonavi.com/showpic/ea8a13acf838da7ec2756db10324ea78,http://store.is.autonavi.com/showpic/dc2820064712b0108a634799acf7396a
B02F37USFC,圣廷苑酒店,住宿服务;宾馆酒店;五星级宾馆,华强北路4002号圣廷苑酒店A座写字楼,114.087953,22.549768,广东省,深圳市,福田区,4.6,5,0755-82078888,http://store.is.autonavi.com/showpic/d8096e2a23f1c0e14de3b38bf2b7ea4f,http://store.is.autonavi.com/showpic/16ddc23461195d7fef2191816f585670,http://store.is.autonavi.com/showpic/2b9bd422590e7216b91a7819a6ba15c8
B02F309RJ2,大中华深圳喜来登酒店,住宿服务;宾馆酒店;五星级宾馆,福华一路1号大中华国际交易广场,114.062072,22.53586,广东省,深圳市,福田区,4.6,5,0755-83838888;0755-82826182,http://store.is.autonavi.com/showpic/d0adf107f9f02d1a232e43c5b34bc4c8,http://store.is.autonavi.com/showpic/9eeb15700e2788e9f9a49eb64f95894f,http://store.is.autonavi.com/showpic/67ac2195fdf79ca618a5c93066567796
B02F302D7F,都之都大酒店(宝民一路),住宿服务;宾馆酒店;四星级宾馆,宝民一路70,113.901818,22.562537,广东省,深圳市,宝安区,4.2,4,0755-27783888;0755-27788188,http://store.is.autonavi.com/showpic/1742c8406b8600c1f344673bf2fa6071,http://store.is.autonavi.com/showpic/8e0778e7a1d7e74a22285973d64d0025,http://store.is.autonavi.com/showpic/4725047b5873113abe3105315b765f29
B02F309VKS,国丰酒店(会展中心店),住宿服务;宾馆酒店;三星级宾馆,福华路2066号,114.068699,22.534357,广东省,深圳市,福田区,3.9,3,0755-83371888,http://store.is.autonavi.com/showpic/937f9d90fa44cbedee4bcc31d7b86217,http://store.is.autonavi.com/showpic/857c30046cd77369752443367bac71c9,http://store.is.autonavi.com/showpic/66568afa215c6273bf10d0297415d627
B02F309Q4G,长丰酒店,住宿服务;宾馆酒店;四星级宾馆,沙井新桥北环路1-2号,113.84277,22.734318,广东省,深圳市,宝安区,4.1,4,0755-27228888,http://store.is.autonavi.com/showpic/6fb6c590980a1340eefec4440fc59859,http://store.is.autonavi.com/showpic/a7b63e615f5e0bc3fcfa240eb6ac344f,http://store.is.autonavi.com/showpic/983cf11940e369b6de52ca3601480743
B02F37U71P,深圳富苑皇冠假日套房酒店,住宿服务;宾馆酒店;五星级宾馆,南湖路3018号,114.120887,22.542287,广东省,深圳市,罗湖区,4.6,5,0755-82172288,http://store.is.autonavi.com/showpic/20e63e770f1196c941a669a101cc3c31,http://store.is.autonavi.com/showpic/fd31517a981da9c7bbf6dabf72badd03,http://store.is.autonavi.com/showpic/eb5e91e4e68203c273b952910996231f
B02F37VFD0,友谊酒店,住宿服务;宾馆酒店;三星级宾馆,嘉宾路3013号,114.117097,22.538966,广东省,深圳市,罗湖区,4.0,3,0755-82313602;0755-82311999;15889595502,http://store.is.autonavi.com/showpic/9e25ef4b24ab55a425ccf7a4f05c9ab3,http://store.is.autonavi.com/showpic/ede807f2957b2013bec9c0ee2121034c,http://store.is.autonavi.com/showpic/ada4ca60d0fb6556309e61bcf9c38047
B02F306R65,马哥孛罗好日子酒店,住宿服务;宾馆酒店;五星级宾馆,福华一路28号,114.053596,22.537159,广东省,深圳市,福田区,4.6,5,0755-82989888,http://store.is.autonavi.com/showpic/72b596f95bbaf5190abeaafba3ce269e,http://store.is.autonavi.com/showpic/c1da0ec70e389e350a124434b6945374,http://store.is.autonavi.com/showpic/291dea1f6ecb9d33402bc95083430f39
B02F300940,四川宾馆,住宿服务;宾馆酒店;三星级宾馆,红荔路2001号四川大厦17-22层,114.095143,22.548681,广东省,深圳市,福田区,4.5,3,0755-83673400;0755-83673333;0755-83673173,http://store.is.autonavi.com/showpic/bcc6d444c47793a7bd8cc3857c454493,http://store.is.autonavi.com/showpic/bea6c9c1daaa20a9f07e13ba1bdd3e7a,http://store.is.autonavi.com/showpic/3cb3219bcf81ce270da5a0742c0634d9
B0FFF5U6AB,大梅沙海景酒店,住宿服务;宾馆酒店;四星级宾馆,盐梅路100号,114.307467,22.594609,广东省,深圳市,盐田区,4.0,4,0755-25061688,http://store.is.autonavi.com/showpic/20e6dab167fe317cc31f91226f6d01e8,http://store.is.autonavi.com/showpic/97818ca51879cbe41d26f50c1043de69,http://store.is.autonavi.com/showpic/bab79b22c2ea35f04e79cebd1e5b555a
B02F37VBMX,东湖宾馆,住宿服务;宾馆酒店;三星级宾馆,爱国路4006号,114.145578,22.574483,广东省,深圳市,罗湖区,3.9,3,0755-25400088,http://store.is.autonavi.com/showpic/5989cb04676b19fd6f5dea14ced75a5f,http://store.is.autonavi.com/showpic/7319b04b5c35a59257f498886ebecebe,http://store.is.autonavi.com/showpic/7a07ee52f429fdd0415714659eef8e3a
B02F37WQX7,新都酒店,住宿服务;宾馆酒店;四星级宾馆,春风路4001号,114.117907,22.535842,广东省,深圳市,罗湖区,4.7,4,0755-82320888,http://store.is.autonavi.com/showpic/9b883b1ac1cb106386bcf402e427c902,http://store.is.autonavi.com/showpic/f6e08c5e0f1bfd8e3f52e3f1f8edf813,http://store.is.autonavi.com/showpic/a5f21a7e6afb2d85b09ff334678773a9
B02F37TYFA,海景嘉途酒店,住宿服务;宾馆酒店;四星级宾馆,华侨城光侨街3-5号,113.986474,22.534676,广东省,深圳市,南山区,4.5,4,0755-26602222;4008309996,http://store.is.autonavi.com/showpic/e44d7f01f02857fcc7034c509a723113,http://store.is.autonavi.com/showpic/833748b51ff7fc3de5c8ff02d1268871,http://store.is.autonavi.com/showpic/909648da92f3af09b1c10010949a4fdd
B02F37W9OY,长丰花园酒店,住宿服务;宾馆酒店;四星级宾馆,石岩镇浪心社区万大工业园(青年路与洲石路交叉口北约100米处),113.921374,22.672366,广东省,深圳市,宝安区,4.0,4,0755-29008888,http://store.is.autonavi.com/showpic/3ddf10284aedba64c9b11725eeecc97e,http://store.is.autonavi.com/showpic/a5055b87546189430e0b3122455e11e8,http://store.is.autonavi.com/showpic/9051c9b398f4a0f160ae8653dd77e9aa
B02F37T4NV,雅兰斯丽比迪酒店,住宿服务;宾馆酒店;四星级宾馆,大梅沙盐梅路92号,114.308262,22.595423,广东省,深圳市,盐田区,4.4,4,0755-25062299;0755-25060615,http://store.is.autonavi.com/showpic/d67803eba89fec1e002eafb3f8bf90f7,http://store.is.autonavi.com/showpic/01054f739256eb164e9ba5fa372bb10d,http://store.is.autonavi.com/showpic/afa1d439d41390fc31c119e3a5813975
B02F38X6ZE,深圳东泊湾商务酒店,住宿服务;宾馆酒店;三星级宾馆,西乡鹤洲广场路3号,113.862039,22.623199,广东省,深圳市,宝安区,4.0,3,0755-29980000,http://store.is.autonavi.com/showpic/ffd484b2b6fc899fec47762ba2295fd2,http://store.is.autonavi.com/showpic/3b479737427624b1d01400ccce950aa4,http://store.is.autonavi.com/showpic/c4900d22accda0d2f085e7eb20e22681
B02F37U6TU,世纪华源商务酒店,住宿服务;宾馆酒店;三星级宾馆,八卦路3号,114.099449,22.556702,广东省,深圳市,福田区,4.2,3,0755-61621888,http://store.is.autonavi.com/showpic/727242bb9edc771caa9c619c4a26bfee,http://store.is.autonavi.com/showpic/e21e2baf2a125e403192981e8592116b,http://store.is.autonavi.com/showpic/52114aa170492d39cb9ccbca79c66349
B02F3006E2,景明达酒店,住宿服务;宾馆酒店;四星级宾馆,商报东路85号,114.048355,22.552156,广东省,深圳市,福田区,4.3,3,0755-83548000,http://store.is.autonavi.com/showpic/ae0201f343c4944a2ac3b8b42edba621,http://store.is.autonavi.com/showpic/c7ff27bd77806fbbb4f0378da2b859a5,http://store.is.autonavi.com/showpic/cad6022ec6adcbfa8b4874fce6dc3d95
B02F37VSPX,庐山酒店,住宿服务;宾馆酒店;四星级宾馆,春风路3019,114.123746,22.537135,广东省,深圳市,罗湖区,4.5,4,0755-82338888,http://store.is.autonavi.com/showpic/1d5dde51009278ae61e5a6d516fdd4d4,http://store.is.autonavi.com/showpic/cd23b19d10cd17e3092b660158ff9535,http://store.is.autonavi.com/showpic/2a937c5c46b382b5cd0034b342067afc
B02F37RTSQ,宝明城大酒店(光明新区店),住宿服务;宾馆酒店;四星级宾馆,振明路30号,113.903386,22.776094,广东省,深圳市,宝安区,4.3,4,0755-27100888;0755-27101888,http://store.is.autonavi.com/showpic/1349db17a1426b4350917a07277639d0,http://store.is.autonavi.com/showpic/65949ea38d835a7f595e60b7121bc1e8,http://store.is.autonavi.com/showpic/dabf945945f883db259462e71270fd5c
B02F37WRSV,宝亨达国际大酒店,住宿服务;宾馆酒店;五星级宾馆,布澜路35号,114.121366,22.64535,广东省,深圳市,龙岗区,4.4,5,0755-61869119;0755-61862222;13631592822,http://store.is.autonavi.com/showpic/ce8cf1abb50320a87220f5b8986b9972,http://store.is.autonavi.com/showpic/899b02053ca08efb6b8ae0b300dbdcc3,http://store.is.autonavi.com/showpic/556351577081103fd85474f0e41905c4
B02F38JGIR,喜格商务酒店,住宿服务;宾馆酒店;三星级宾馆,宝安大道8220号,113.823693,22.725821,广东省,深圳市,宝安区,4.1,3,0755-27558880,http://store.is.autonavi.com/showpic/5464338bc03c1712f36508416a8d35ba,http://store.is.autonavi.com/showpic/b54c77d9f0e0304c0729ed880e0ad108,http://store.is.autonavi.com/showpic/b260b49cd47c3d9ce4f62a1cd990914c
B02F3008BA,金碧酒店,住宿服务;宾馆酒店;四星级宾馆,春风路3002号,114.124316,22.538365,广东省,深圳市,罗湖区,3.9,4,0755-82252888,http://store.is.autonavi.com/showpic/83967fcd846869532e3ef03b0d201b29,http://store.is.autonavi.com/showpic/b7a142229725796f153e9009c8311dfc,http://store.is.autonavi.com/showpic/6e0bac4355c564fa93891131812c8529
B02F37WL3L,观悦酒店(观澜镇观光路店),住宿服务;宾馆酒店;三星级宾馆,观澜镇观光路1395号大水坑路段首座(观澜  深圳北站与观澜大道交汇处),114.018415,22.731143,广东省,深圳市,龙华区,4.3,3,0755-29002288,http://store.is.autonavi.com/showpic/b479b91e20cbb930317ee99bb8d2d7bf,http://store.is.autonavi.com/showpic/bc2c4060e5773712b9cfe3c99dcc5924,http://store.is.autonavi.com/showpic/3464a7dff96692268bfc2bdbd1adcd25
B02F37T231,丽苑酒店(原鸿图大酒店),住宿服务;宾馆酒店;三星级宾馆,东门中路2048号(东门金融大厦旁茂业百货东门店斜对面),114.122102,22.547552,广东省,深圳市,罗湖区,3.8,3,0755-82226688;0755-82299757,http://store.is.autonavi.com/showpic/f2ff27c9f320af9fddfc235e082352cb,http://store.is.autonavi.com/showpic/6cd0c5b1d2275316060285573544e13d,http://store.is.autonavi.com/showpic/aea59ba173e476a7cddfb74bcf5f2db4
B02F302506,深圳中油阳光大酒店,住宿服务;宾馆酒店;四星级宾馆,南山大道1110号中油大厦,113.922877,22.519421,广东省,深圳市,南山区,4.5,4,0755-26528333,http://store.is.autonavi.com/showpic/6e1e33068d9072236d6eeb8874eb38cd,http://store.is.autonavi.com/showpic/6efe77966dba3588d67a0fe0f2c038a3,http://store.is.autonavi.com/showpic/addd04f864f57932225671159909fe9f
B02F3008C4,凯利宾馆,住宿服务;宾馆酒店;四星级宾馆,嘉宾路2027号,114.121661,22.539906,广东省,深圳市,罗湖区,4.3,3,0755-82376188;0755-82253270,http://store.is.autonavi.com/showpic/48a202cb37505fbceb4f1a517babeec8,http://store.is.autonavi.com/showpic/6bbc7bb30a243921c4ce618e0927ab16,http://store.is.autonavi.com/showpic/884b64210f83c5ffd86df6a60157c5d3
B02F38IEPD,明华国际会议中心,住宿服务;宾馆酒店;四星级宾馆,蛇口龟山路8号,113.911496,22.484478,广东省,深圳市,南山区,4.2,4,0755-26689968;0755-26686668,http://store.is.autonavi.com/showpic/2b4d2027d8133f00b3408c3675997328,http://store.is.autonavi.com/showpic/ec8c3393ebdc79803d66a250dcaebc46,http://store.is.autonavi.com/showpic/f2f8257dc60be2f461155c12d19fb9a1
B02F3008C0,京鹏宾馆,住宿服务;宾馆酒店;三星级宾馆,深南东路2008号京鹏大厦,114.129112,22.545289,广东省,深圳市,罗湖区,4.1,3,0755-22941560;0755-82227190,http://store.is.autonavi.com/showpic/53d407f8f2691b33db4200f9468a8274,http://store.is.autonavi.com/showpic/134baf91e719105e95a354006a4c490e,http://store.is.autonavi.com/showpic/2c872e6a7d010efd1e0df1be4526223f
B02F3008A2,寰宇大酒店,住宿服务;宾馆酒店;三星级宾馆,红岭中路1002号  俯瞰荔枝公园  邻京基百纳、大剧院  地铁1、2号大剧院站  3、9号红岭站  火车站3站地铁、会展中心4站,114.105458,22.544501,广东省,深圳市,罗湖区,4.3,3,0755-25595024;0755-82475088,http://store.is.autonavi.com/showpic/46ac6cffe7ddef63e0c129ede6c31508,http://store.is.autonavi.com/showpic/34e5cddb2f47d528eec65721bad7b886,http://store.is.autonavi.com/showpic/e68d45aa16130f5fc976946f0ec96175
B02F3053WH,老地方酒店,住宿服务;宾馆酒店;三星级宾馆,春风路3007号桂都大厦1层,114.125996,22.538335,广东省,深圳市,罗湖区,3.9,3,0755-82343222;0755-82328188,http://store.is.autonavi.com/showpic/7940b09b05ec030f8b663f0625f28843,http://store.is.autonavi.com/showpic/30c0d7eb578a14dd4c5346560e502e03,http://store.is.autonavi.com/showpic/3040c5b33b1f0a3bb435ce8cf6b75e65
B02F37T927,蔡屋围大酒店,住宿服务;宾馆酒店;三星级宾馆,解放西路4058号(地铁1号线大剧院站C出口)京基一百大厦及地王大厦旁,114.108295,22.54242,广东省,深圳市,罗湖区,4.3,3,0755-25566666,http://store.is.autonavi.com/showpic/bede7c78067a3740e66b4609b5a9ddfc,http://store.is.autonavi.com/showpic/c7e309bfe7019bb8913388eeb4fa9c71,http://store.is.autonavi.com/showpic/b93f683dbc68e3499756a271b49f47b6
B0FFFEKGN6,深圳汉永酒店(机场店),住宿服务;宾馆酒店;三星级宾馆,福永街道凤凰大道103号,113.825832,22.671962,广东省,深圳市,宝安区,4.4,3,0755-27333888;0755-81462882;4009013868,http://store.is.autonavi.com/showpic/f013ae0ae6327edc1c1489ca619d74d2,http://store.is.autonavi.com/showpic/a9b783e311d06c7a43c6e8667385f78e,http://store.is.autonavi.com/showpic/f6ad500ffe1c9533f92dd00df0f8ea3e
B02F37W9T0,观澜湖度假酒店,住宿服务;宾馆酒店;五星级宾馆,观澜高尔夫大道1号,114.076586,22.737778,广东省,深圳市,龙华区,4.7,5,0755-28020888,http://store.is.autonavi.com/showpic/0f2c5f7225a79e4f5b93ac9c2d41f1e3,http://store.is.autonavi.com/showpic/71db81fb895fd662752c9d8c8fafc922,http://store.is.autonavi.com/showpic/b8e0b63c0ef92c59015bf5d8b1f9c096
B02F300935,深圳丽都酒店,住宿服务;宾馆酒店;三星级宾馆,东门南路2007号广发大厦,114.124385,22.539115,广东省,深圳市,罗湖区,4.4,3,0755-82259988;0755-82256204,http://store.is.autonavi.com/showpic/8ba91eb904c7ff0429ba7703e238028e,http://store.is.autonavi.com/showpic/3d57605a29a3b88fbf5f1c3f4fefa0b5,http://store.is.autonavi.com/showpic/560ed3e33e06e7da878b876d008ac585
B02F306R5W,东方银座雅高美爵酒店,住宿服务;宾馆酒店;五星级宾馆,深南大道竹子林,114.01275,22.535073,广东省,深圳市,福田区,4.5,5,0755-83500888,http://store.is.autonavi.com/showpic/8e487dc7d60636c4b5d3350c0f151ee8,http://store.is.autonavi.com/showpic/5a03fce9b12bee35cfd614eb7b8b6cf7,http://store.is.autonavi.com/showpic/e1337324d9bcd1b3081a878237e01a3c
B0FFGAT7HD,瑞驰酒店,住宿服务;宾馆酒店;四星级宾馆,石洲中路55号国际市长交流中心,113.966422,22.538751,广东省,深圳市,南山区,4.0,4,0755-86100888;0755-86100312,http://store.is.autonavi.com/showpic/371e75ba5eb79e874bd9685157ff9370,http://store.is.autonavi.com/showpic/e1f07269d42d5b92a4146d50d040d338,http://store.is.autonavi.com/showpic/e2bec4788d7171b558d77d99e00345eb
B02F3000F6,深圳银湖酒店,住宿服务;宾馆酒店;三星级宾馆,银湖路38号,114.076079,22.58238,广东省,深圳市,罗湖区,4.4,3,0755-82431111;0755-82438272,http://store.is.autonavi.com/showpic/8ce14b892d69f6ff233408ead7073f60,http://store.is.autonavi.com/showpic/e070520f19a87a009aab8e090604b2ca,http://store.is.autonavi.com/showpic/15649947c4a3d211970042ef788d2d0d
B0FFFK6XJZ,广珅国际大酒店,住宿服务;宾馆酒店;三星级宾馆,和平路1028号,114.116407,22.53347,广东省,深圳市,罗湖区,4.0,3,0755-25591911;0755-25573138,http://store.is.autonavi.com/showpic/f00b6f5eccd154637c2c8917b97b3942,http://store.is.autonavi.com/showpic/7fe564ef2c4f73c81f40d5722fac4a01,http://store.is.autonavi.com/showpic/26ecc456b04a515c309441a0bef53b22
B02F37WCF8,六联酒店,住宿服务;宾馆酒店;三星级宾馆,深汕路坪山段215号,114.34717,22.698392,广东省,深圳市,坪山区,4.4,3,0755-28825339;0755-84288999,http://store.is.autonavi.com/showpic/65ddb3731560ecbbf76f6829a8f1a453,http://store.is.autonavi.com/showpic/ebd7695d425e88083a064979cb4d9a48,http://store.is.autonavi.com/showpic/e400f6bfc044de92619cbc30e16f6fe1
B02F37VBD0,三九大酒店,住宿服务;宾馆酒店;三星级宾馆,深南东路1001号+  地铁蛇口线、环中线黄贝岭站D出口,114.139568,22.545791,广东省,深圳市,罗湖区,4.0,3,0755-25128888,http://store.is.autonavi.com/showpic/76abe271972ca7598082479b73d4cfce,http://store.is.autonavi.com/showpic/da4a6c364f0e66708faf48daeaedd1d8,http://store.is.autonavi.com/showpic/a1300ad001363ab8bcfefa9effe73bb2
B02F30A0HU,金鹏大酒店(布吉店),住宿服务;宾馆酒店;三星级宾馆,布吉镇金鹏路26号金利商业广场,114.118165,22.606132,广东省,深圳市,龙岗区,4.1,3,0755-28527888;0755-28527777,http://store.is.autonavi.com/showpic/94a71b2b49cf19a62675769ba0d44151,http://store.is.autonavi.com/showpic/304afaba6a73b250f13a154d4526a737,http://store.is.autonavi.com/showpic/481c799706055f8618d833eb12622d1f
B02F37VH7D,香格里拉大酒店,住宿服务;宾馆酒店;五星级宾馆,益田路4088号,114.057237,22.536263,广东省,深圳市,福田区,4.7,4,0755-88284088;0755-21513838,http://store.is.autonavi.com/showpic/68fb0ddb11cc91b5f065dab1e2bf7c33,http://store.is.autonavi.com/showpic/8782684219b1b8e9b410f451fff5a980,http://store.is.autonavi.com/showpic/b6de88ab6a921d9f723a545edd59259d
B0FFF5RLD9,中海凯骊酒店,住宿服务;宾馆酒店;五星级宾馆,大运路168号,114.215233,22.70361,广东省,深圳市,龙岗区,4.7,5,0755-89899888,http://store.is.autonavi.com/showpic/c82cbf5e931e8bb13dd9555b8f66e4d1,http://store.is.autonavi.com/showpic/c64b01b9b4e50387db3f23605840b0dc,http://store.is.autonavi.com/showpic/36adfc2c962ae7bb5b688a3cb406f1d8
B02F300882,广深宾馆,住宿服务;宾馆酒店;三星级宾馆,深南东路2023号广深大厦四楼,114.126286,22.544277,广东省,深圳市,罗湖区,3.8,3,0755-82354378;0755-33053893,http://store.is.autonavi.com/showpic/f7304b1aac039477d89974ad0e90a625,http://store.is.autonavi.com/showpic/3a2dd48c71cc329c5b162ea5a88a56ff,http://store.is.autonavi.com/showpic/45833ff830917cc8c1d2e354bf4a2f83
B02F37WQEP,投资大厦宾馆,住宿服务;宾馆酒店;三星级宾馆,深南大道4009号投资大厦1层,114.053577,22.538552,广东省,深圳市,福田区,4.6,3,0755-83883888;0755-83883128,http://store.is.autonavi.com/showpic/92fc7abac8518e93170904264c9c65d8,http://store.is.autonavi.com/showpic/fbbae6698bcb4cbfdf147571bc2b9b88,http://store.is.autonavi.com/showpic/168a813adef4e4482b1f21924b9773d3
B02F300960,深圳永安大酒店,住宿服务;宾馆酒店;三星级宾馆,红岭中路1028号(荔枝公园对面),114.104934,22.547149,广东省,深圳市,罗湖区,3.9,3,0755-82112999;0755-82113267,http://store.is.autonavi.com/showpic/cbdfd4b4054e59f66e5c9193df20b060,http://store.is.autonavi.com/showpic/e513155928d6b703e88d81d8167d9577,http://store.is.autonavi.com/showpic/6aed717ace0c455fb8addfb916a28b31
B02F37VJAZ,锦江之星酒店(深圳宝安机场店),住宿服务;宾馆酒店;经济型连锁酒店,福永镇下十围村福海二路66号,113.823612,22.648403,广东省,深圳市,宝安区,4.3,4,0755-27301899;4008209999,http://store.is.autonavi.com/showpic/a717006752788d601d26007c7f6a2d91,http://store.is.autonavi.com/showpic/a1a13b1ea2a3e899edd8daf2096ed9e0,http://store.is.autonavi.com/showpic/b3307a174fc14c894f9ea373908ec7b1
B0FFF760PN,火车站大酒店西座,住宿服务;宾馆酒店;三星级宾馆,和平路,114.116646,22.531304,广东省,深圳市,罗湖区,4.1,3,0755-22986922,http://store.is.autonavi.com/showpic/4a4f09f16dcb128a27f12590aa852ec4,http://store.is.autonavi.com/showpic/a3db94a064a95debf615b46bec3ae85d,http://store.is.autonavi.com/showpic/06387cdf07c2f8f309e154615137476e
B02F30A7PG,山水时尚酒店(深圳罗湖口岸店),住宿服务;宾馆酒店;经济型连锁酒店,沿河南路1098号,114.124308,22.534658,广东省,深圳市,罗湖区,4.4,3,0755-61621126;0755-61621111,http://store.is.autonavi.com/showpic/4b4a8f704ece2722e66c435c3841f586,http://store.is.autonavi.com/showpic/90b8573bc284997692333870f5a49967,http://store.is.autonavi.com/showpic/ee40e840721d4c87927dfbb71cf6009a
B02F38IZVX,嘉悦酒店,住宿服务;宾馆酒店;四星级宾馆,南光路120,113.927858,22.521603,广东省,深圳市,南山区,4.5,3,0755-26569999;0755-86602916,http://store.is.autonavi.com/showpic/ddbd0bd84ab69d30c9329654748c5b46,http://store.is.autonavi.com/showpic/53d3c86c60cef725667e78a34970ce0c,http://store.is.autonavi.com/showpic/bae279147ada34b51ebcd396d4153a10
B02F37SGVG,南澳大酒店,住宿服务;宾馆酒店;三星级宾馆,360省道南澳镇水头沙海滨,114.482061,22.547248,广东省,深圳市,龙岗区,3.7,3,0755-88252434,http://store.is.autonavi.com/showpic/334d87ffbf56131cc0e4f35db6845b8a,http://store.is.autonavi.com/showpic/f2360b3d3e952c5f0172244121391040,http://store.is.autonavi.com/showpic/ad5f374ff35fd186b17e66c7028a4a0c
B02F37WJUD,名典商旅酒店(深圳西丽店),住宿服务;宾馆酒店;宾馆酒店,西丽留仙大道壮丽商厦1001号,113.953439,22.580258,广东省,深圳市,南山区,4.3,3,0755-86608866,http://store.is.autonavi.com/showpic/cf586d4115280cd6cfde275e4587ff67,http://store.is.autonavi.com/showpic/fd02b1af2001370703a3dfb57cd25eda,http://store.is.autonavi.com/showpic/05497788eeef10212bbf9666cf693035
B02F37W2Q7,和谐酒店(福海大道),住宿服务;宾馆酒店;宾馆酒店,广深公路辅路与福海大道交叉口,113.827998,22.678043,广东省,深圳市,宝安区,4.3,5,0755-27373666,http://store.is.autonavi.com/showpic/8b1253d7287c2b2ccf63e0d70204f88b,http://store.is.autonavi.com/showpic/76c0e0e497c939fb7056f59445be85f5,http://store.is.autonavi.com/showpic/0221cc560a2fcf5b677938835dffd07f
B02F37WHV2,山水时尚酒店(景湖店),住宿服务;宾馆酒店;经济型连锁酒店,布吉路32号,114.116375,22.598302,广东省,深圳市,龙岗区,4.1,3,0755-28262666,http://store.is.autonavi.com/showpic/da399973842ea6547e1034455860fb9c,http://store.is.autonavi.com/showpic/3ec23019a7a39819a5d0e168cd28152e,http://store.is.autonavi.com/showpic/629b94dc59e9b33cb168039fc5bee0b8
B02F38IEQL,深圳蛇口希尔顿南海酒店,住宿服务;宾馆酒店;五星级宾馆,望海路1177号,113.91623,22.479366,广东省,深圳市,南山区,4.5,5,0755-21628888,http://store.is.autonavi.com/showpic/d2a3788dff6fabe94075f99b9d15f80d,http://store.is.autonavi.com/showpic/1cc4b75e5b4689497989d5ebba778f90,http://store.is.autonavi.com/showpic/1063713cc4640981b43d1ea975ddb4eb
B02F37T50M,深圳花园格兰云天大酒店,住宿服务;宾馆酒店;四星级宾馆,深南中路4026号田面城市大厦B3-13,114.076404,22.541307,广东省,深圳市,福田区,4.6,4,0755-82816666;18128860508,http://store.is.autonavi.com/showpic/b2fb601362213ab95cf40b46a5fef28f,http://store.is.autonavi.com/showpic/1dd9f9e83fabf0cc978b5d17547ee2c2,http://store.is.autonavi.com/showpic/53926f37ac60dad2e275c227541b589b
B02F38IHGH,宝琳酒店,住宿服务;宾馆酒店;四星级宾馆,文锦北路1118号祥祺鹏大厦,114.123522,22.566243,广东省,深圳市,罗湖区,4.1,4,0755-25629888,http://store.is.autonavi.com/showpic/01a9902f162927ec80e623f8262d1eaa,http://store.is.autonavi.com/showpic/01587f638dceebf5b472d1b88d237e04,http://store.is.autonavi.com/showpic/6a5036cdb506e4f554d23aa80421a55c
B02F305KS6,银泉酒店,住宿服务;宾馆酒店;三星级宾馆,八卦一路11栋,114.103754,22.557528,广东省,深圳市,福田区,3.9,3,0755-61359999,http://store.is.autonavi.com/showpic/e327777a8ae2461e121a75818691773a,http://store.is.autonavi.com/showpic/5199980048cee040a155d8314eb7e942,http://store.is.autonavi.com/showpic/fa5e623eb380323f23ff7dc479088f0d
B02F37VXBW,金之美宾馆,住宿服务;宾馆酒店;宾馆酒店,兰光路13号华美大厦东座2层,114.091730,22.546331,广东省,深圳市,福田区,4.2,3,0755-83253216;0755-23895303,http://store.is.autonavi.com/showpic/29e3fa94add06f408a8872078c7cdbe0,http://store.is.autonavi.com/showpic/060972daf0448f3c3fea2e4dba7c70f8,http://store.is.autonavi.com/showpic/e042923c80999a58fb977baf963c576f
B02F30037C,明阳酒店,住宿服务;宾馆酒店;四星级宾馆,田贝三路32号,114.127354,22.564619,广东省,深圳市,罗湖区,4.0,3,0755-25623888;0755-25636168,http://store.is.autonavi.com/showpic/f15f96b152ec70a1b45ecd2dda08fe65,http://store.is.autonavi.com/showpic/c04401f7094fea4c9ff99f0c878a81ec,http://store.is.autonavi.com/showpic/5bd7abcd50352f7c577f9f621555a92f
B02F37VROM,维也纳酒店(深圳沙井店),住宿服务;宾馆酒店;四星级宾馆,沙井南环路343-345号,113.807716,22.716281,广东省,深圳市,宝安区,4.8,3,0755-88899988,http://store.is.autonavi.com/showpic/bcf217e9bb666ab4e0079310ede95ffd,http://store.is.autonavi.com/showpic/ac328b4b2c82a1b6ede8cc8beab8c79f,http://store.is.autonavi.com/showpic/e9845aaf04591c19301bbda1e3213288
B02F37W66T,锦江之星酒店(深圳南山前海路店),住宿服务;宾馆酒店;经济型连锁酒店,前海路3168-7号,113.915586,22.532803,广东省,深圳市,南山区,4.3,4,0755-26161222;4008209999,http://store.is.autonavi.com/showpic/6803d77028d706dbedf3475ee251680c,http://store.is.autonavi.com/showpic/73dc499ac0722ee24ba879312ebebd14,http://store.is.autonavi.com/showpic/3d826963efdd1be4e2bad3d88da814a0
B02F30AAKR,万福盈酒店,住宿服务;宾馆酒店;经济型连锁酒店,公明建设路25区1号,113.902471,22.775360,广东省,深圳市,宝安区,4.4,5,0755-27412638;13620968913,http://store.is.autonavi.com/showpic/15d4521ee0e228981fbec40aa3b2cb86,http://store.is.autonavi.com/showpic/432253158a4c9d6960433bb032ef8896,http://store.is.autonavi.com/showpic/f4e72cd5c0eb2f921e98d22d35368f2f
B02F30A8GR,圣德堡酒店,住宿服务;宾馆酒店;四星级宾馆,深惠路3002号,114.188722,22.636936,广东省,深圳市,龙岗区,4.5,3,0755-33618888;0755-33829889,http://store.is.autonavi.com/showpic/751c4ebbe55bee336c6729654ab6a948,http://store.is.autonavi.com/showpic/97b9d8bc3e62ca652a5a056d1054a3e8,http://store.is.autonavi.com/showpic/5d23c906110a3be824db39aa92bb8738
B02F37WJUC,深圳东部华侨城黑森林酒店,住宿服务;宾馆酒店;四星级宾馆,大梅沙东部华侨城茶溪谷,114.279917,22.629382,广东省,深圳市,盐田区,4.5,3,0755-22172088;4008309996,http://store.is.autonavi.com/showpic/2123ae8da85697f952528c0ef039835f,http://store.is.autonavi.com/showpic/23b87011d474ec63d94187465d0405f0,http://store.is.autonavi.com/showpic/8d73aa3885d6c5b2ea661cc857200367
B02F38J2NP,深圳东方明珠酒店(换老板店),住宿服务;宾馆酒店;宾馆酒店,31区前进一路186号,113.898280,22.575443,广东省,深圳市,宝安区,4.1,3,0755-29984111;0755-29442229,http://store.is.autonavi.com/showpic/1557781cdf94a02b81c83889c94a58c3,http://store.is.autonavi.com/showpic/d6759872eafb811521d9223039503a66,http://store.is.autonavi.com/showpic/2233b09b7238851bb344c313f2cfffb6
B02F309S6O,东方山水酒店(南山店),住宿服务;宾馆酒店;四星级宾馆,前海路1122号,113.914653,22.521626,广东省,深圳市,南山区,4.1,4,0755-26416666;0755-86061999,http://store.is.autonavi.com/showpic/612bfa235483a804f6e84bbac4f3d488,http://store.is.autonavi.com/showpic/49babbfccafb0a42324ec7a565952c55,http://store.is.autonavi.com/showpic/73b1a7e25ddaa34c29b8585479750f81
B02F37WQI1,圣淘沙酒店(马家龙店),住宿服务;宾馆酒店;四星级宾馆,艺园路1132号马家龙田厦IC产业园(前海工业区与大新路交汇处),113.927495,22.548761,广东省,深圳市,南山区,4.4,3,0755-26586888,http://store.is.autonavi.com/showpic/748321c226ebd3d1124680ca9af586f1,http://store.is.autonavi.com/showpic/783323e4d997811ba64409ca5e0fd86e,http://store.is.autonavi.com/showpic/c78406dcefba036ee71efca55667c24f
B02F37WRRD,私享家酒店公寓(深圳尊寓店),住宿服务;宾馆酒店;宾馆酒店,沿河路1025号汇泰大厦9层(柏斯顿酒店旁),114.121986,22.534273,广东省,深圳市,罗湖区,4.6,3,0755-22658030;13612911010,http://store.is.autonavi.com/showpic/3836c707ac65d25ca907e1decfefdd8e,http://store.is.autonavi.com/showpic/021dab1c9bc29b542440b7a62c0b3960,http://store.is.autonavi.com/showpic/caeb3f62214fab6952758ebf068c4a3e
B02F38IPUL,蓬客精品酒店(万象城店),住宿服务;宾馆酒店;四星级宾馆,和平路1076号,114.115836,22.538309,广东省,深圳市,罗湖区,4.5,3,0755-61864666;0755-61360888,http://store.is.autonavi.com/showpic/12c753d76d6fb647a2202ed1aadb74b4,http://store.is.autonavi.com/showpic/56880f26f1209551c78f7343ab81a40f,http://store.is.autonavi.com/showpic/1bc0a03a9eb4447ef368add3c5311f93
B02F37VMT7,茵特拉根华侨城酒店,住宿服务;宾馆酒店;五星级宾馆,大梅沙东部华侨城,114.27579,22.631594,广东省,深圳市,盐田区,4.6,3,0755-88883333;4008601388,http://store.is.autonavi.com/showpic/f2359035517b992a98136b3e1a318986,http://store.is.autonavi.com/showpic/658ef94ae074b04fbc83594ec62bade6,http://store.is.autonavi.com/showpic/39c1604a58ba0b261eabe9dbf3193619
B02F37WLQW,三联大酒店,住宿服务;宾馆酒店;四星级宾馆,布吉三联社区联布北路,114.115067,22.62809,广东省,深圳市,龙岗区,4.4,3,0755-28286988,http://store.is.autonavi.com/showpic/a4bcfd4b0c2de045ff7570481dd35041,http://store.is.autonavi.com/showpic/e3d074b854d45586fe32358dc591dad4,http://store.is.autonavi.com/showpic/b3477298602bd82891418527c9b05a8f
B02F37VRP3,华强广场酒店,住宿服务;宾馆酒店;五星级宾馆,华强北路1019号,114.086042,22.543942,广东省,深圳市,福田区,4.6,5,0755-83208888,http://store.is.autonavi.com/showpic/122880c05f8da04fcb4931c06410bd70,http://store.is.autonavi.com/showpic/6b8432fae48e8dfa40ed15157ddae842,http://store.is.autonavi.com/showpic/5dde2a754c636a3cd1e4d619582fdfa0
B02F37VTS6,悦来客栈(深圳罗湖店),住宿服务;宾馆酒店;经济型连锁酒店,宝安南路1050号,114.112708,22.540919,广东省,深圳市,罗湖区,3.9,3,0755-25562796;0755-25566622,http://store.is.autonavi.com/showpic/24e7ceeab0961058e66dc462c41e9696,http://store.is.autonavi.com/showpic/cb8c2840c8396329e18e952dc52ffcdb,http://store.is.autonavi.com/showpic/d174b11596c31ab7af726bff6d4dceac
B02F300E16,楚天大酒店,住宿服务;宾馆酒店;四星级宾馆,滨河大道9003号湖北大厦,114.047529,22.527659,广东省,深圳市,福田区,4.7,5,0755-83566366;0755-83566117;4008863003,http://store.is.autonavi.com/showpic/19d27592225f58607d84959926c57254,http://store.is.autonavi.com/showpic/d607b46343dc3b8b647a9b45aca94e55,http://store.is.autonavi.com/showpic/f21ced00bd46ac47a030a3897e635606
B0FFFCMK6O,维也纳酒店(深圳大学城店),住宿服务;宾馆酒店;经济型连锁酒店,平山村385号,113.966665,22.586352,广东省,深圳市,南山区,4.7,4,0755-26723888;4008882888,http://store.is.autonavi.com/showpic/9c9a6871c23b1b137330939f7c9d541a,http://store.is.autonavi.com/showpic/ec2de8e343b29d76c37d5c86b32650fd,http://store.is.autonavi.com/showpic/75db4b38cfd989eb4bda51e0cee1fc08
B02F37VRPC,富邦国际酒店,住宿服务;宾馆酒店;四星级宾馆,学府路171号,113.915998,22.527931,广东省,深圳市,南山区,4.4,4,0755-26161999;0755-86120000,http://store.is.autonavi.com/showpic/8d1c646215acf762b1fad05173eb79e3,http://store.is.autonavi.com/showpic/2c96cb9b5ac06669ab52fe403ae73f2f,http://store.is.autonavi.com/showpic/03d2a5957485787347c734bb6a8310c4
B02F37UBJU,锦江之星酒店(深圳福民路店),住宿服务;宾馆酒店;经济型连锁酒店,福民路8号,114.066024,22.523644,广东省,深圳市,福田区,4.4,3,0755-88301212;4008209999,http://store.is.autonavi.com/showpic/0dd5f1d7ffe52262de3d059102125576,http://store.is.autonavi.com/showpic/e1b1681f787d7cc0ebce92c2e46612ec,http://store.is.autonavi.com/showpic/9ba402e36b9570736352c0709d8a7337
B02F37WMDU,汉庭(深圳南山地铁站店),住宿服务;宾馆酒店;经济型连锁酒店,南山大道店2011号亿利达村1-2栋,113.923439,22.525024,广东省,深圳市,南山区,4.4,3,0755-33912988,http://store.is.autonavi.com/showpic/8958008902d2348f06940eedfe945de8,http://store.is.autonavi.com/showpic/ba3e97adf58d08c8872d66d32b06c72b,http://store.is.autonavi.com/showpic/6e6d196ba932134f4427a1799fdb1aed
B02F37U6LB,海林酒店,住宿服务;宾馆酒店;四星级宾馆,泗黎路500号,114.041966,22.727733,广东省,深圳市,龙华区,4.1,3,0755-23123222,http://store.is.autonavi.com/showpic/cf5c4dd9c58024eeb591fe87fc6f9596,http://store.is.autonavi.com/showpic/65428af955fa761c5ab797a3b590a8fa,http://store.is.autonavi.com/showpic/c774b5ee0c0d6aed624fd6da13f5d370
B02F37VLZJ,维纳斯酒店,住宿服务;宾馆酒店;四星级宾馆,民治大道637号,114.037392,22.626663,广东省,深圳市,龙华区,4.2,3,0755-29577788,http://store.is.autonavi.com/showpic/d4e25169d58c579f07b31a518800746d,http://store.is.autonavi.com/showpic/9073e875fbce87d589cdadf19db21a6e,http://store.is.autonavi.com/showpic/6109009c40068b09c916c6eeb7bc5d26
B02F37WDHL,东方精品酒店(莲塘店),住宿服务;宾馆酒店;三星级宾馆,国威路6号莲塘投资大厦1层,114.175377,22.564522,广东省,深圳市,罗湖区,4.0,4,0755-83855188;0755-25728621,http://store.is.autonavi.com/showpic/e7f4a2eb310a6a0db1059c83933a6ef7,http://store.is.autonavi.com/showpic/55f9047eb00b991501d9b69d0eb19337,http://store.is.autonavi.com/showpic/add9787031506ee4e6b1380fe15fd6f6
B02F37VLET,悦来客栈(深圳宝安店),住宿服务;宾馆酒店;经济型连锁酒店,新安二路25号,113.907806,22.558444,广东省,深圳市,宝安区,3.8,5,0755-27753439;0755-27754111,http://store.is.autonavi.com/showpic/eb5703636d4e6d2b5b87a78386fd11ed,http://store.is.autonavi.com/showpic/a5dcaadbd7f697a58d2876891602255b,http://store.is.autonavi.com/showpic/bb226a9b23100b7c600b307f6f650879
B0FFF36ELZ,心悦会客栈,住宿服务;旅馆招待所;旅馆招待所,大鹏新区大鹏较场尾东二巷3号,114.511875,22.590143,广东省,深圳市,龙岗区,4.7,3,4008773277;18666825165;13717053256,http://store.is.autonavi.com/showpic/85ecc56da0271cde735ae582b619b1dc,http://store.is.autonavi.com/showpic/c44f99c991b203dcc1109b115a49db1c,http://store.is.autonavi.com/showpic/6cff4b4bd06f3e9e19ed1bc6678df8f5
B02F37WRRE,友和雅商大酒店,住宿服务;宾馆酒店;四星级宾馆,爱联段398号,114.241855,22.706607,广东省,深圳市,龙岗区,4.2,3,0755-28981666;0755-28888896,http://store.is.autonavi.com/showpic/1e56fa5c9993b91312bdde275a511e3e,http://store.is.autonavi.com/showpic/ecceeec79ab0e6485342714c2501cc7e,http://store.is.autonavi.com/showpic/126fbbfc7ab98bc1512dd452d09a2a7e
B02F37VVNV,王子客栈,住宿服务;宾馆酒店;三星级宾馆,建设路1008号一楼大堂  地铁罗湖站C出口  人民南站A出口,114.1178,22.534064,广东省,深圳市,罗湖区,3.5,3,0755-83386888;0755-82392341,http://store.is.autonavi.com/showpic/c6f9423ac80b9ab5620127b0b52cc26e,http://store.is.autonavi.com/showpic/0a8cc3c8d50f7254df6ba50a74ef8023,http://store.is.autonavi.com/showpic/85c7c09a309907a9e9f04f80be4bea43
B02F37VKIC,巴兰塔酒店,住宿服务;宾馆酒店;四星级宾馆,大和路234,114.049817,22.699333,广东省,深圳市,龙华区,4.2,4,0755-29522888;0755-29522393,http://store.is.autonavi.com/showpic/7b0661a23e6df5ae409a642eba95ee74,http://store.is.autonavi.com/showpic/57ac905d9f928d16797512b2cd549add,http://store.is.autonavi.com/showpic/1a74bd874396e875f746b5be332192be
B02F37VKEX,维也纳酒店(深圳油松店),住宿服务;宾馆酒店;经济型连锁酒店,东环一路,114.034907,22.64797,广东省,深圳市,龙华区,4.6,3,0755-29577168;4008882888,http://store.is.autonavi.com/showpic/819dfad78c721936304fd5283cece3e7,http://store.is.autonavi.com/showpic/63967cf1580d46a4e528b63940ff241a,http://store.is.autonavi.com/showpic/d3194251f694fdf5835ba632d71fbaec
B02F37W716,鸿丰大酒店(南山店),住宿服务;宾馆酒店;五星级宾馆,东滨路4096号,113.912358,22.512297,广东省,深圳市,南山区,4.4,3,0755-86606666;0755-86599391,http://store.is.autonavi.com/showpic/5b66651a1d15e5fc6e87e619930361c8,http://store.is.autonavi.com/showpic/ef6af9aa9d7866131e77fc3562556109,http://store.is.autonavi.com/showpic/3ae90e9346ad85900d51b94816261c57
B02F37W2M8,宾利酒店,住宿服务;宾馆酒店;三星级宾馆,平湖镇白泥坑良白路46号,114.147227,22.651262,广东省,深圳市,龙岗区,4.0,3,0755-61864666;0755-61360888,http://store.is.autonavi.com/showpic/37e8861330ae1909fb3cb11c4395cfc7,http://store.is.autonavi.com/showpic/5866a6ece8d5d0268165037612e092d5,http://store.is.autonavi.com/showpic/0879c140acc02cd7eac92256248fb310
B02F30241C,新桃园酒店(桃园店),住宿服务;宾馆酒店;四星级宾馆,桃园东路10号,113.925359,22.532993,广东省,深圳市,南山区,4.1,3,0755-26493388;0755-26493174,http://store.is.autonavi.com/showpic/ff58b060d643170dc77f831ea59d81f9,http://store.is.autonavi.com/showpic/85491859bc51545a66f81312a262bc90,http://store.is.autonavi.com/showpic/fdddbf9a7d88c98d4f4b8744fec5a0f2
B02F37WC8Z,中南海怡酒店,住宿服务;宾馆酒店;四星级宾馆,深南大道7028号时代科技大厦6-12层,114.023819,22.537008,广东省,深圳市,福田区,4.3,3,0755-83786666,http://store.is.autonavi.com/showpic/f53ac529419379c46c1527fd8d59d68b,http://store.is.autonavi.com/showpic/91804a853523a554a3589b91b4a43354,http://store.is.autonavi.com/showpic/707aa949d979f323b8a25595f9db6655
B02F305GSN,长城大酒店,住宿服务;宾馆酒店;四星级宾馆,红桂路2086号,114.106893,22.550113,广东省,深圳市,罗湖区,4.5,5,0755-25583369;0755-25568779,http://store.is.autonavi.com/showpic/4d6a0d2bad283e60c47647c86346d32c,http://store.is.autonavi.com/showpic/7d44201545b4f1463201d7f5c66fe0b6,http://store.is.autonavi.com/showpic/821068706f4facfc5da7b3561249d7cd
B02F3002EF,上林苑酒店,住宿服务;宾馆酒店;三星级宾馆,八卦二路106号,114.100119,22.559222,广东省,深圳市,福田区,4.1,3,0755-82262082,http://store.is.autonavi.com/showpic/fbc351cd6499eeff46c4041435ef32e9,http://store.is.autonavi.com/showpic/9fad24d4e7ab4c699d2bf1495ec62dcb,http://store.is.autonavi.com/showpic/c4c5562d6c5ccca64e97603650b89d45
B02F38K75U,如家快捷酒店(深圳东站店),住宿服务;宾馆酒店;经济型连锁酒店,布吉老街吉信街8号九矿广场5层,114.116809,22.601233,广东省,深圳市,龙岗区,4.3,5,0755-33910618,http://store.is.autonavi.com/showpic/974846f3ae48ce9d8e06898f52be9cfe,http://store.is.autonavi.com/showpic/202ecee24d40a814fd53e4d37d92f351,http://store.is.autonavi.com/showpic/16f42c5c66c2a86783b6ebaec66a65b5
B02F309V2K,观澜酒店(新澜大街),住宿服务;宾馆酒店;宾馆酒店,观澜镇新澜大街91号,114.054806,22.718145,广东省,深圳市,龙华区,4.2,4,0755-28080668,http://store.is.autonavi.com/showpic/327d42b824ae3073b73915afcb5648c2,http://store.is.autonavi.com/showpic/030591c6ccaf2ea774f9985a7454f3fe,http://store.is.autonavi.com/showpic/ea529b0df69c1a7d0bdb938dbc594cef
B02F37WLQP,八方精品酒店(沙井中心店),住宿服务;宾馆酒店;经济型连锁酒店,沙井街道万丰万家蓢路353号(沙井、松岗工业区近天虹商场),113.827861,22.720233,广东省,深圳市,宝安区,4.2,4,0755-29755588;0755-27265616,http://store.is.autonavi.com/showpic/725051d37a25b5c322dfa90dd9673ff7,http://store.is.autonavi.com/showpic/8419f22aaca47888a1a0489e80c4708c,http://store.is.autonavi.com/showpic/5455aca04e2c715c83efef3ae0e77349
B02F37U2WP,中南海悦大酒店,住宿服务;宾馆酒店;四星级宾馆,前海路1428号南岗商务大厦16-21层,113.915697,22.527214,广东省,深圳市,南山区,4.2,3,0755-86253888;0755-86224938,http://store.is.autonavi.com/showpic/ddd4562000154e3b2809ed704f0697af,http://store.is.autonavi.com/showpic/694130597380a8b64aa1abc67433ec2a,http://store.is.autonavi.com/showpic/c6b57c14e5a43da84353ae60a1b199c2
B02F37VW9E,同程之恋主题酒店,住宿服务;宾馆酒店;宾馆酒店,东园路45-1号,114.101473,22.537393,广东省,深圳市,福田区,4.4,3,0755-22155339;13302457393,http://store.is.autonavi.com/showpic/776084eceea2a535c12b9a34a0813648,http://store.is.autonavi.com/showpic/476ee9625dc93e236e0eb59545db0ce4,http://store.is.autonavi.com/showpic/93762bd8ee4465e70bf3f9ac3dbfc6a8
B02F37W9SS,景苑梅沙酒店,住宿服务;宾馆酒店;四星级宾馆,金沙街13,114.310561,22.599917,广东省,深圳市,盐田区,4.2,3,0755-25255333;0755-25255316,http://store.is.autonavi.com/showpic/a2976405475100b92cb01ae7fa670033,http://store.is.autonavi.com/showpic/fbcf93b9f1ab4148fd1ca39161b26b02,http://store.is.autonavi.com/showpic/e707e8160153762157d16ce706fabdea
B02F302028,经盛商务酒店,住宿服务;宾馆酒店;三星级宾馆,龙华建设东路丹枫雅苑综合楼,114.031593,22.653905,广东省,深圳市,龙华区,3.8,3,0755-29577788,http://store.is.autonavi.com/showpic/034446e1b9e7ef3c6ea579f325475943,http://store.is.autonavi.com/showpic/c23b93e21e5b4c682de4f30db57661a6,http://store.is.autonavi.com/showpic/a3a88d4b3db69a9820a32f522e34fd74
B02F37UHUL,维也纳酒店(龙观西路店),住宿服务;宾馆酒店;经济型连锁酒店,龙观西路95号,114.006742,22.658864,广东省,深圳市,龙华区,4.7,4,0755-28066888,http://store.is.autonavi.com/showpic/7678190f1f069ce43faf111525a0fa20,http://store.is.autonavi.com/showpic/155a604b4d42be6f49bfc43ec02c7842,http://store.is.autonavi.com/showpic/1629a510b441b7863f3f28683fea8208
B02F37WIJM,山水时尚酒店(深圳坂田店),住宿服务;宾馆酒店;经济型连锁酒店,坂田坂雪岗大道3010号,114.067354,22.637984,广东省,深圳市,龙岗区,4.3,5,0755-61216666,http://store.is.autonavi.com/showpic/88d6e43f18043d282c27cae7528ae87f,http://store.is.autonavi.com/showpic/192fbb0c4abfc4812bbfae734e52b82a,http://store.is.autonavi.com/showpic/9de00eadfd658509394500129b8111ae
B02F37UQA9,东佳精品酒店,住宿服务;宾馆酒店;三星级宾馆,嘉宾路2008号彭年广场东佳大厦11-13层,114.122070,22.540802,广东省,深圳市,罗湖区,4.2,3,0755-66866998;0755-25185577,http://store.is.autonavi.com/showpic/ab8d4e9daf75199896a11f7515269ba6,http://store.is.autonavi.com/showpic/8e02e3fd7fe4913283a7996ca5ec7463,http://store.is.autonavi.com/showpic/9126950146e7a602ff6d9f5b4258a64a
B02F37TXLS,深圳翠园酒店,住宿服务;宾馆酒店;三星级宾馆,关口路25号翠岭大厦,113.918888,22.53716,广东省,深圳市,南山区,4.2,3,0755-26084716;0755-26163435,http://store.is.autonavi.com/showpic/5c38fa48dc1ce53257ac3e07cfa3f354,http://store.is.autonavi.com/showpic/32cc433a48a08a4c6df6490eb3de3635,http://store.is.autonavi.com/showpic/b2d83a4d7aec718bcb49b69e38aa2e84
B02F38IQ3I,深圳东部华侨城瀑布酒店,住宿服务;宾馆酒店;四星级宾馆,大梅沙东部华侨城大侠谷,114.303614,22.606513,广东省,深圳市,盐田区,4.5,3,0755-25289999,http://store.is.autonavi.com/showpic/fbc7d3c04929d591e97118c1bfa03697,http://store.is.autonavi.com/showpic/dc364b674d4599c40a8caba0e3e813cc,http://store.is.autonavi.com/showpic/e9ba1c075f10c1fd07459e08b6fba998
B02F38JF5U,八方精品酒店(深圳西丽店),住宿服务;宾馆酒店;宾馆酒店,同沙路24号,113.949142,22.584210,广东省,深圳市,南山区,4.2,4,0755-86151588,http://store.is.autonavi.com/showpic/6b82076de82119844278a95651a28e3c,http://store.is.autonavi.com/showpic/3c7934825e0c3d3ed1d18d0fa783680c,http://store.is.autonavi.com/showpic/df7cdbdfcb65c192095e816bb7406113
B02F38J6PK,东方山水酒店,住宿服务;宾馆酒店;四星级宾馆,福永街道桥头同富裕工业区永和路与蚝业路交汇处,113.79351,22.679195,广东省,深圳市,宝安区,4.0,3,0755-29912222;0755-29599519,http://store.is.autonavi.com/showpic/98d1f025625fb33079e26ab7cd36b393,http://store.is.autonavi.com/showpic/331f922d94702520f3ba4aaac7ce158b,http://store.is.autonavi.com/showpic/b7ed980d5cd577511ae1f5834fb00560
B02F37U5TF,怡丰酒店,住宿服务;宾馆酒店;四星级宾馆,福围中路1号,113.826235,22.65482,广东省,深圳市,宝安区,4.3,3,0755-27378888,http://store.is.autonavi.com/showpic/69c45dc632d487da831899babd3bb1c0,http://store.is.autonavi.com/showpic/33d17e2c527021b587774874d77c6024,http://store.is.autonavi.com/showpic/e9c89a80f303c893054d0ee0d8fc5066
B02F37WRWX,登喜路酒店(宝安店),住宿服务;宾馆酒店;四星级宾馆,新安四路188号,113.894396,22.581289,广东省,深圳市,宝安区,4.3,3,0755-27943888,http://store.is.autonavi.com/showpic/1bccbb09ae0df51d47ddb38fbf224f2f,http://store.is.autonavi.com/showpic/b10fcf0e03f52ece3a5c58ac020dfe69,http://store.is.autonavi.com/showpic/2628650975fde4702464e613eaf3118b
B02F37U7UD,重庆宾馆(南湖路),住宿服务;宾馆酒店;宾馆酒店,南湖路2013号庆安大厦21-23层,114.121297,22.538109,广东省,深圳市,罗湖区,4.3,3,0755-82173966;0755-82288196,http://store.is.autonavi.com/showpic/e0d11d5edd309a5fd9e931c347f22d9a,http://store.is.autonavi.com/showpic/ff8b30baa6d6b1d8cb25547bb0290d2a,http://store.is.autonavi.com/showpic/eb3c61ee1e4306ae6ec5cd768612a242
B02F38ZQBJ,深圳豪派特华美达广场酒店,住宿服务;宾馆酒店;五星级宾馆,民治街道梅龙路与民汇路交汇处,114.03414,22.620462,广东省,深圳市,龙华区,4.6,3,0755-81718888,http://store.is.autonavi.com/showpic/36946859a5c3b7bfd9ae3114fa253b80,http://store.is.autonavi.com/showpic/c7d4f31e228851e029ce94aaadf51575,http://store.is.autonavi.com/showpic/90bc4f0aedad94ce3a8dd726a8ec9238
B02F37W9T5,锦城酒店(银湖店),住宿服务;宾馆酒店;四星级宾馆,金湖路63号(近深圳银湖汽车站),114.090713,22.569736,广东省,深圳市,罗湖区,4.0,5,0755-25583369;0755-25568779,http://store.is.autonavi.com/showpic/60edfb669aec96f8b81f9484de6f320d,http://store.is.autonavi.com/showpic/052355d2e37393cc7de6c9a0236b245e,http://store.is.autonavi.com/showpic/c52484b8854986a301fd079afb0665d3
B02F300971,振兴宾馆(工发路),住宿服务;宾馆酒店;三星级宾馆,红荔西路上步工业区501栋3007号,114.084155,22.548336,广东省,深圳市,福田区,4.1,3,0755-83365128,http://store.is.autonavi.com/showpic/064f93693ce0d2806047a36fd88521e2,http://store.is.autonavi.com/showpic/48b96a9e82e3c44a81a1a1673c74ebf5,http://store.is.autonavi.com/showpic/c0cb978a8fce82e2a3773fcd2b6938ff
B02F37WQEV,山水时尚酒店(深圳华强北店),住宿服务;宾馆酒店;经济型连锁酒店,华发北路9号4-8层,114.088827,22.544051,广东省,深圳市,福田区,4.3,5,0755-61355555,http://store.is.autonavi.com/showpic/a941004c7dcfe253fd087a431b68f057,http://store.is.autonavi.com/showpic/f9ce823bf8e12fb1b8baaccbc0512577,http://store.is.autonavi.com/showpic/ac5fb9bff1c47f8c6fb6a2c160aa9dad
B02F37VIAK,骏通大酒店,住宿服务;宾馆酒店;三星级宾馆,西乡大道296号,113.860716,22.570551,广东省,深圳市,宝安区,4.1,4,0755-27797777,http://store.is.autonavi.com/showpic/4d93fb0329744813328a64733bd5fc96,http://store.is.autonavi.com/showpic/42f72a54dfcbd80899cd0549e9aef069,http://store.is.autonavi.com/showpic/5748ef4b380a80a0269b66b06e3fb9cc
B0FFF36ENY,宝山旅馆(民福路),住宿服务;旅馆招待所;旅馆招待所,民田路117号,114.035308,22.623103,广东省,深圳市,龙华区,2.6,4,0755-23447331,http://store.is.autonavi.com/showpic/97c7b211889d757593bb574fbb7216ff,http://store.is.autonavi.com/showpic/3b941a62c3cd5178bfcde5232d533462,http://store.is.autonavi.com/showpic/a6d0d272f4e6bb323ab510fa1b03921c
B02F37U1UY,新相约宾馆,住宿服务;宾馆酒店;三星级宾馆,振兴路12-4号,114.093911,22.546708,广东省,深圳市,福田区,3.9,3,0755-82865288;0755-83360304,http://store.is.autonavi.com/showpic/a36466170b4c9db4430650b46715e926,http://store.is.autonavi.com/showpic/f2a6b5361483915aca17c16c913714aa,http://store.is.autonavi.com/showpic/3c81ce385c11cd299e664637776aec25
B02F3059SO,红桂大酒店,住宿服务;宾馆酒店;四星级宾馆,红桂路2068号红桂大厦,114.107717,22.550347,广东省,深圳市,罗湖区,4.3,3,0755-25865688,http://store.is.autonavi.com/showpic/c278ef80623d29c12dc5712743c69c7e,http://store.is.autonavi.com/showpic/b9917260f3165d78cf3f960e4f6387bf,http://store.is.autonavi.com/showpic/dddaa3ddd302a5958076925ec49539df
B02F37WK09,福布斯酒店(桃园店),住宿服务;宾馆酒店;三星级宾馆,华宁路4号,113.991475,22.69039,广东省,深圳市,龙华区,4.1,3,0755-33234338;4007777538,http://store.is.autonavi.com/showpic/9e9d26e68c6b807e7702889d8dd90b02,http://store.is.autonavi.com/showpic/556b45be76074d02e2b3985c1fbc4d79,http://store.is.autonavi.com/showpic/1a7dc2f94355d5b0f74717667b8917ef
B02F37V7U9,丽晶酒店(上星南路),住宿服务;宾馆酒店;三星级宾馆,沙井南环路99号,113.829241,22.709786,广东省,深圳市,宝安区,3.8,3,0755-27230333;15919999704,http://store.is.autonavi.com/showpic/f980b53443b9608892bae1083f1e9e3c,http://store.is.autonavi.com/showpic/7120f193e2c22c78321b4d9897383b5f,http://store.is.autonavi.com/showpic/0a435ca7744611abf42ad1809134402a
B0FFF36ELW,水丽坊客栈,住宿服务;旅馆招待所;旅馆招待所,较场尾较一区一巷8号,114.510863,22.589724,广东省,深圳市,龙岗区,3.3,4,13922874473,http://store.is.autonavi.com/showpic/2b2dba9b9cb1c3f5a6867fb66a519ccc,http://store.is.autonavi.com/showpic/ff1a0df616ec20dea87feb8b29670f23,http://store.is.autonavi.com/showpic/04db1935a45e19bf836356c25807e690
B02F3054ZV,银岛酒店,住宿服务;宾馆酒店;三星级宾馆,平湖镇平湖大街593号,114.129175,22.695021,广东省,深圳市,龙岗区,3.7,5,0755-28455088,http://store.is.autonavi.com/showpic/07d8101e5b1529a01f12eb2c2d21e6ef,http://store.is.autonavi.com/showpic/9a855312ad271ebd698f9add366500f0,http://store.is.autonavi.com/showpic/307fe980fcfffa28d036f7e87f717b3d
B02F37WFOR,移家商务酒店(深圳宝安港隆城店),住宿服务;宾馆酒店;三星级宾馆,西乡大道782-15号,113.876280,22.583376,广东省,深圳市,宝安区,3.7,3,0755-61860800,http://store.is.autonavi.com/showpic/0404cb6827cf21ecd1aea51c995f5dd8,http://store.is.autonavi.com/showpic/48ac132606becd6ff857b0e34e80d5ea,http://store.is.autonavi.com/showpic/5f39c8193e8b6cf971e17e099a6d0a61
B02F37VY7Q,禧程酒店(罗湖店),住宿服务;宾馆酒店;宾馆酒店,红宝路151号(京基100大厦楼下荔枝公园旁),114.105938,22.544178,广东省,深圳市,罗湖区,4.3,3,0755-25568088;0755-25575519,http://store.is.autonavi.com/showpic/0b37c2604de7b93a0c0471c8af324142,http://store.is.autonavi.com/showpic/b7c40f52cf9ed0a61e02f5b2086a8f95,http://store.is.autonavi.com/showpic/865a5ff3c89068eece7a9c98c91e60cb
B02F37SN13,潭海酒店,住宿服务;宾馆酒店;四星级宾馆,松岗镇广深路松岗段44号,113.849295,22.749601,广东省,深圳市,宝安区,4.6,3,0755-27083333,http://store.is.autonavi.com/showpic/2fd4532798e34640b75922657b964b48,http://store.is.autonavi.com/showpic/694eab3fe9ca12b814ac5f923e33451f,http://store.is.autonavi.com/showpic/6cbe11cb3d589396460c588289bc525a
B02F37U6LK,机场大酒店,住宿服务;宾馆酒店;三星级宾馆,机场6道1028号,113.824374,22.647778,广东省,深圳市,宝安区,4.2,4,0755-27772888,http://store.is.autonavi.com/showpic/fba5ff5c4866caf7b1b4786379dedef8,http://store.is.autonavi.com/showpic/a9457e2981df2d46a0a9aaf03eb85bd0,http://store.is.autonavi.com/showpic/f0805daffa179f1cc621ff37038a61f2
B02F37VPAI,和平酒店(机场店),住宿服务;宾馆酒店;三星级宾馆,福永镇永和路42号,113.793127,22.691248,广东省,深圳市,宝安区,3.9,3,0755-29923888,http://store.is.autonavi.com/showpic/1a1d2ccc648e30c31f7d06f6eaf62192,http://store.is.autonavi.com/showpic/a472a1ca8897c6be2ac3e0416eb89931,http://store.is.autonavi.com/showpic/fecc669ecf162a47eded14d0988caf3b
B02F37WKZW,民都国际酒店,住宿服务;宾馆酒店;四星级宾馆,观澜大道178号,114.043802,22.705498,广东省,深圳市,龙华区,4.3,3,0755-28016333,http://store.is.autonavi.com/showpic/447e3fc08bae1ec400f6bd403d1902e9,http://store.is.autonavi.com/showpic/6c04f1851ca971dba236fa063953c07f,http://store.is.autonavi.com/showpic/5d841e5835151c0a7160010cab95cb2d
B02F37WRTH,她他会酒店公寓(世界之窗店),住宿服务;宾馆酒店;宾馆酒店,华夏路沙河世纪假日广场C座123-1,113.972039,22.538596,广东省,深圳市,南山区,3.8,3,0755-86398981;18926072507,http://store.is.autonavi.com/showpic/0d0013ef6fa134c542d0c033f17b6eb0,http://store.is.autonavi.com/showpic/51fb1f1442e298106e9dea711beee84d,http://store.is.autonavi.com/showpic/71a989409dcb1be416276da825ed3bb0
B02F302E8A,帝文娜公馆酒店,住宿服务;宾馆酒店;四星级宾馆,上川路201,113.900798,22.579615,广东省,深圳市,宝安区,4.4,3,0755-29189999;0755-89811511,http://store.is.autonavi.com/showpic/1e718a69db4ffbc81640f86a228b567e,http://store.is.autonavi.com/showpic/fbf3129c4d70070ff0165b6182a25cab,http://store.is.autonavi.com/showpic/15a59ae3fba9ba4a4eb9cbfa31ef1c4f
B02F37W0TR,盛世金华酒店,住宿服务;宾馆酒店;四星级宾馆,龙城大道66号,114.253751,22.712439,广东省,深圳市,龙岗区,4.1,3,0755-85200355;0755-89302888,http://store.is.autonavi.com/showpic/ff39cb6877a0c914ef0921bb8fc0172f,http://store.is.autonavi.com/showpic/82eb58b593a12217e819e73ccdc37138,http://store.is.autonavi.com/showpic/3cc05494b9a23ac3aa42a293a4af6ccc
B02F37SJDP,荣登客栈,住宿服务;旅馆招待所;旅馆招待所,八卦三路荣生综合楼四层,114.099923,22.562089,广东省,深圳市,福田区,3.8,5,0755-85555118;0755-25860390;13434455259,http://store.is.autonavi.com/showpic/acb286daf5adeda6b62660091c4a7947,http://store.is.autonavi.com/showpic/48392518e086771bd39de58859bc3902,http://store.is.autonavi.com/showpic/d52e061d4d0a52c1481936ec2e0481a3
B02F306JSV,新时代酒店,住宿服务;宾馆酒店;四星级宾馆,嘉宾路4018爵士大厦C座,114.114869,22.539606,广东省,深圳市,罗湖区,4.2,3,0755-25670000,http://store.is.autonavi.com/showpic/8cedcc3ec42aaf544e21ef1a8f906e5b,http://store.is.autonavi.com/showpic/0c4a8906c394d0acd3213e186d2729a0,http://store.is.autonavi.com/showpic/096e7c803b62d961e58590d9fb76b591
B02F38IYON,摩登克斯酒店,住宿服务;宾馆酒店;五星级宾馆,宝安南路1036号鼎丰大厦,114.11209,22.539629,广东省,深圳市,罗湖区,4.5,5,0755-61866789;0755-61289377,http://store.is.autonavi.com/showpic/fb8451b2c73fde916e94478c20b5a955,http://store.is.autonavi.com/showpic/2c36ee92abcb6873e7af6bce9826015d,http://store.is.autonavi.com/showpic/e49b8e6e51b608dcd27b1bf6771bddc6
B02F309U1K,如家快捷酒店(深圳宝安机场T3航站楼店),住宿服务;宾馆酒店;经济型连锁酒店,福中路12号,113.820936,22.659155,广东省,深圳市,宝安区,4.3,4,0755-29601599,http://store.is.autonavi.com/showpic/65904f7820726701b143a9f94682643d,http://store.is.autonavi.com/showpic/9d4aaf95c36cbdd0d7bde72639b293f8,http://store.is.autonavi.com/showpic/1ef86c03101a4be0dabadb46eaafc310
B02F37W5QR,雅园宾馆,住宿服务;宾馆酒店;四星级宾馆,东门北路1001号,114.126819,22.555488,广东省,深圳市,罗湖区,3.9,4,0755-25605888,http://store.is.autonavi.com/showpic/bf307a6d5a6c4bf67c8c1c5d71f98c77,http://store.is.autonavi.com/showpic/d976c997ecdbbb40f3813d4a4b41b184,http://store.is.autonavi.com/showpic/171541da2aa210360a05eff1df26e924
B02F38IZDN,丽湾酒店,住宿服务;宾馆酒店;四星级宾馆,新生路1号,114.281285,22.739369,广东省,深圳市,龙岗区,4.6,3,0755-84840000,http://store.is.autonavi.com/showpic/4ed92b5ab8574c0f241e4931bebc7a4e,http://store.is.autonavi.com/showpic/0f52ffc92a5617857bcdbacfaf8d592e,http://store.is.autonavi.com/showpic/727166d7bb1d692637a1a40deab28b79
B02F37WFF4,福永花园酒店(机场店),住宿服务;宾馆酒店;三星级宾馆,福安街道政丰北路消防中队旁,113.813398,22.675574,广东省,深圳市,宝安区,3.7,3,0755-29605888,http://store.is.autonavi.com/showpic/2c752decff87d2adfe73518ac17c64cf,http://store.is.autonavi.com/showpic/5c534dfef89a5adab2ecd3326709743c,http://store.is.autonavi.com/showpic/c7e929f044d66852968db3611eefdd90
B02F37U1VY,星洲宾馆(北村一路),住宿服务;宾馆酒店;宾馆酒店,新洲村牌坊街新洲北村72号综合楼2层,114.046351,22.526618,广东省,深圳市,福田区,3.2,3,0755-83308870;0755-83306885,http://store.is.autonavi.com/showpic/bbf6069ebdddfa11cf29c87434e60f8c,http://store.is.autonavi.com/showpic/edc5a83ddd4720dd702ced841f152de4,http://store.is.autonavi.com/showpic/582449f99410a67e814fa10a7b1151c2
B02F30A1JZ,深圳凯宾斯基酒店,住宿服务;宾馆酒店;五星级宾馆,海德三道13,113.939345,22.518044,广东省,深圳市,南山区,4.6,3,0755-88888888,http://store.is.autonavi.com/showpic/8205adc09ea2a5a9e52a1be802eb16c1,http://store.is.autonavi.com/showpic/bc0c3068fb940ec8f2dc8c0338c0ce99,http://store.is.autonavi.com/showpic/b46ca891761135a76bf6d2d7cf47a922
B02F37URF5,俊园酒店,住宿服务;宾馆酒店;四星级宾馆,爱国路1001号俊园大厦3楼(近文锦路),114.130945,22.551428,广东省,深圳市,罗湖区,2.9,4,0755-25771888;0755-25771878,http://store.is.autonavi.com/showpic/25a728fbb8272bf57ed7eab505edb4ad,http://store.is.autonavi.com/showpic/3b0858507d517ebd53d5e137f2aec884,http://store.is.autonavi.com/showpic/b93c2093426e656c7c5845acf1e78dae
B02F37U1OW,香樟商务酒店,住宿服务;宾馆酒店;四星级宾馆,金田路3037号金中环商务大厦A座10层,114.062473,22.5342,广东省,深圳市,福田区,4.1,5,0755-82802233;0755-82802200;0755-88375088,http://store.is.autonavi.com/showpic/3d1f35a400221d3b542b4f6f1aab28a2,http://store.is.autonavi.com/showpic/54b955599faf687fef357cece42ea296,http://store.is.autonavi.com/showpic/70d681817c0db7422a41d1edb97cf46c
B02F37VFA0,乐源宾馆(洪浪北地铁站店),住宿服务;宾馆酒店;宾馆酒店,新安三路209-3号,113.904355,22.580643,广东省,深圳市,宝安区,3.8,3,0755-29989381,http://store.is.autonavi.com/showpic/29c207626d3760edc31ed9f3799bcc3a,http://store.is.autonavi.com/showpic/9b2999578ee1d075c5d952a911c9731b,http://store.is.autonavi.com/showpic/6be19cd43eefacb8a91855768b5fa9a5
B02F37VB4E,龙洲快捷酒店,住宿服务;宾馆酒店;宾馆酒店,春风路1052号文锦大厦2层,114.131755,22.543179,广东省,深圳市,罗湖区,3.7,3,0755-25100890,http://store.is.autonavi.com/showpic/bb219f3024284552fdd2b6c03f8e13c8,http://store.is.autonavi.com/showpic/4afdd200a85ab20aec3a3b6935a6e474,http://store.is.autonavi.com/showpic/0bd9f52f36faffcc2bdcddbd1b3c237b
B02F37VJ7U,桂品轩酒店(前进二路店),住宿服务;宾馆酒店;四星级宾馆,宝安西乡前进二路36号桂品轩酒店,113.891998,22.58196,广东省,深圳市,宝安区,4.3,3,0755-29656990;0755-29656999,http://store.is.autonavi.com/showpic/0b292ad2c1d378d3fac07e3d15712850,http://store.is.autonavi.com/showpic/ae5e1f8d605d59454bd67f302c58dfb9,http://store.is.autonavi.com/showpic/48530536cf1f982c36054f8ff63f8862
B02F37VY02,蓬客商务酒店(梅园店),住宿服务;宾馆酒店;四星级宾馆,梅园路5号,114.111517,22.56327,广东省,深圳市,罗湖区,4.4,4,0755-82421333,http://store.is.autonavi.com/showpic/c4f85a5e5cab1c0774fc48cfe9c90667,http://store.is.autonavi.com/showpic/155d56e33c05eeae6150fd5a2edf355b,http://store.is.autonavi.com/showpic/2c25aca4a3d6b86f2ddf3435ccd57f3a
B0FFGG5YC2,仁善恒酒店,住宿服务;宾馆酒店;四星级宾馆,东门南路1074号瑞鹏大厦(地铁向西村站A1出口直走100米),114.126457,22.538911,广东省,深圳市,罗湖区,4.3,3,0755-82308333,http://store.is.autonavi.com/showpic/18b53283d609276aa09675d49bd5f360,http://store.is.autonavi.com/showpic/81f7e946baa065782da8712e6b1565d4,http://store.is.autonavi.com/showpic/483466894149982fef0eb0643c402314
B02F37WLYL,绿景锦江酒店,住宿服务;宾馆酒店;五星级宾馆,新洲路3099号,114.047754,22.521016,广东省,深圳市,福田区,4.5,3,0755-82508888,http://store.is.autonavi.com/showpic/3a893d41e06281d6640adfd585d72af9,http://store.is.autonavi.com/showpic/76559aa02826da6d1108f808bc082a84,http://store.is.autonavi.com/showpic/350e56540df6cf00b8801ce169ec5957
B02F37RLIX,京海宾馆(深圳华强店),住宿服务;宾馆酒店;宾馆酒店,福华路29-6京海裙楼,114.082554,22.537319,广东省,深圳市,福田区,5.0,3,0755-83752906;0755-85263399,http://store.is.autonavi.com/showpic/20732f29774f1ecede41bebd34b021f6,http://store.is.autonavi.com/showpic/06ffb5014bd66d4899fb8d85a4ba13d3,http://store.is.autonavi.com/showpic/3bf1048b182d8aaf162adfbf0307c83f
B02F37VWV5,深圳君悦酒店,住宿服务;宾馆酒店;五星级宾馆,宝安南路1881号,114.111231,22.537153,广东省,深圳市,罗湖区,4.7,3,0755-82661234,http://store.is.autonavi.com/showpic/2196128d6e9d93801c5f176816503bab,http://store.is.autonavi.com/showpic/69a53aa12a8972eccbe28e98656cadd5,http://store.is.autonavi.com/showpic/a5a41e71cb19114b82af3ebbb2a7604a
B02F38JJV5,顺逸东方酒店(深圳大浪店),住宿服务;宾馆酒店;四星级宾馆,大浪华荣路69号(亿康商务大厦B栋),114.005215,22.663821,广东省,深圳市,龙华区,4.5,3,0755-28185888,http://store.is.autonavi.com/showpic/062c49c96ef8fd900640e48d87ad412b,http://store.is.autonavi.com/showpic/7cbc5500967b22bd0a710a646b694959,http://store.is.autonavi.com/showpic/de66865b6a7e50c99ba5eca3d67555bb
B02F37WLRT,7天酒店(深圳华强北地铁站店),住宿服务;宾馆酒店;经济型连锁酒店,振兴路154-8号,114.082847,22.546699,广东省,深圳市,福田区,4.2,5,0755-83257888;0755-83216364,http://store.is.autonavi.com/showpic/6b7b4a7b3e7b1b9035dc7f2ccbdd242f,http://store.is.autonavi.com/showpic/711ae454db3c4a9ff9529da2e14f9db6,http://store.is.autonavi.com/showpic/12236989cd94a896496b0eb1f3dd0ce9
B02F37RMWE,粤佳商务酒店(罗湖店),住宿服务;宾馆酒店;三星级宾馆,和平路船步街21号(罗湖火车站附近),114.114069,22.535272,广东省,深圳市,罗湖区,4.2,3,0755-25928111;0755-25927788,http://store.is.autonavi.com/showpic/f3f19f1124bf492f557a924e52a3ba3e,http://store.is.autonavi.com/showpic/ce38a5fbf0968e01c375e50f2c349e06,http://store.is.autonavi.com/showpic/d5ef1c8b92d8b104a90807b97de1b633
B02F30AG9N,月亮湾客栈(南澳街),住宿服务;旅馆招待所;旅馆招待所,大鹏新区南澳街道南澳街2号,114.491539,22.534041,广东省,深圳市,龙岗区,3.9,5,0755-84404333,http://store.is.autonavi.com/showpic/77b83781e31f58fd0b3720aef4efb04a,http://store.is.autonavi.com/showpic/27360d8fdbd03d811229da5afd7a69e3,http://store.is.autonavi.com/showpic/b9b7c38e3cc9716c6db716474b6ecd8e
B02F37WRSZ,鼎尊商务酒店,住宿服务;宾馆酒店;四星级宾馆,宝安大道3075号,113.87164,22.573959,广东省,深圳市,宝安区,4.3,4,0755-61866066,http://store.is.autonavi.com/showpic/28c2e23b8c42460dd87180f879b1978a,http://store.is.autonavi.com/showpic/d46bdcf9674bdca0de79afa5e071ef88,http://store.is.autonavi.com/showpic/d7df3788b3c4b5c861b748f23c85ea19
B02F309QIO,城市客栈酒店(欢乐谷店),住宿服务;宾馆酒店;经济型连锁酒店,杜鹃山西街6号,113.978656,22.540183,广东省,深圳市,南山区,4.1,4,0755-26930666;4006309996,http://store.is.autonavi.com/showpic/656843e50bcbb6ea129095289bf79358,http://store.is.autonavi.com/showpic/01e879a819c4b350de116553ea2a5e49,http://store.is.autonavi.com/showpic/30a063b0071c1d4b18b95b003b831747
B02F38ZNW5,华盛希尔顿花园酒店,住宿服务;宾馆酒店;四星级宾馆,新沙路529号,113.817955,22.731465,广东省,深圳市,宝安区,4.5,3,0755-27718888,http://store.is.autonavi.com/showpic/5872283672bbabbc09b2ec4cd7e7636f,http://store.is.autonavi.com/showpic/67d26bb40273520044308e07986b2358,http://store.is.autonavi.com/showpic/a36db88c9fb6baacb71bed88ef5c6a92
B02F37WRSQ,富鑫龙宾馆(清湖地铁站店),住宿服务;宾馆酒店;宾馆酒店,龙华街道三联路华园道140号,114.028299,22.662592,广东省,深圳市,龙华区,3.8,3,0755-81487290,http://store.is.autonavi.com/showpic/5d076bfc7ac1b2b4e53b3496a11ef27c,http://store.is.autonavi.com/showpic/e5d1879c2df7dd9b219c95f1ede9dfe1,http://store.is.autonavi.com/showpic/89d4742985c7ffc3383dbd44fe7ae3d6
B02F37UT2T,深圳星河之星酒店(欢乐谷店),住宿服务;宾馆酒店;经济型连锁酒店,创业路135-7号,113.923381,22.516824,广东省,深圳市,南山区,3.6,3,0755-26068361;0755-26701666,http://store.is.autonavi.com/showpic/9f9921718d0a78798563076a517d158c,http://store.is.autonavi.com/showpic/289c83242fab93a7d43715ba4fefab2b,http://store.is.autonavi.com/showpic/01f7f4fea6cad3f718409683132d7c76
B02F37WC0N,大梅沙京基海湾大酒店,住宿服务;宾馆酒店;五星级宾馆,大梅沙盐梅路90号,114.310517,22.598054,广东省,深圳市,盐田区,4.6,3,0755-82688888;0755-25282888,http://store.is.autonavi.com/showpic/3d945c3722762297c1cfafddbd1c13de,http://store.is.autonavi.com/showpic/bd4fc8a4a5bf51d6f6d5bcb80cfaaeda,http://store.is.autonavi.com/showpic/d9ccaaaf408cfde23178a54371fe273c
B02F38IQHG,民族风情酒店,住宿服务;宾馆酒店;宾馆酒店,上川一路33号富华花园小区A栋202室,113.885534,22.566838,广东省,深圳市,宝安区,4.4,4,0755-27920188;0755-27920772,http://store.is.autonavi.com/showpic/fa95289317e228690ada4043c094b538,http://store.is.autonavi.com/showpic/484f0c2e2e5370d42a2367d8946fc8c0,http://store.is.autonavi.com/showpic/d49d7851ab1c1855036283c1af51110d
B02F38IQJF,龙福大酒店,住宿服务;宾馆酒店;四星级宾馆,碧新路2228号,114.261788,22.731674,广东省,深圳市,龙岗区,4.2,5,0755-28831888;0755-28839688;15002050251,http://store.is.autonavi.com/showpic/993ade31f2982e5c4345a45a952f4267,http://store.is.autonavi.com/showpic/23c479f3df6570588e08e76429df9411,http://store.is.autonavi.com/showpic/a723c497f5e5f50a3c5296c09e521285
B02F37WRWV,维也纳酒店(深圳龙岗盛平店),住宿服务;宾馆酒店;三星级宾馆,盛平南路3号,114.255586,22.731155,广东省,深圳市,龙岗区,4.5,3,0755-89623888;13714562123,http://store.is.autonavi.com/showpic/1ac36faf63ddb2aa9f47f8043c27fb2e,http://store.is.autonavi.com/showpic/16aabb325bc2929aba0ace386473a7ad,http://store.is.autonavi.com/showpic/248125ee564cad4003a9a1b1bd00627e
B02F37VPDO,青青世界酒店,住宿服务;宾馆酒店;四星级宾馆,月亮湾青青路1号,113.901418,22.499477,广东省,深圳市,南山区,4.3,3,0755-26646988;0755-26403988;0755-86958756,http://store.is.autonavi.com/showpic/5e9024232e996d70d84fa73e3759b899,http://store.is.autonavi.com/showpic/3903d3914e58c551e5691621a7af6ac0,http://store.is.autonavi.com/showpic/0a71ef0c032afe80742a04efd303a58b
B02F30AAZF,深圳维景酒店,住宿服务;宾馆酒店;四星级宾馆,东门中路2088号,114.123029,22.549052,广东省,深圳市,罗湖区,4.4,3,0755-82318388,http://store.is.autonavi.com/showpic/38bfdf634e7197984be6136f64696421,http://store.is.autonavi.com/showpic/0ba9f21ed804b061899ffc9953025731,http://store.is.autonavi.com/showpic/fcfacd41bd4f379de442b9a3c3b25bc4
B02F3063QG,鸿隆公寓海上世界特色欧式酒店,住宿服务;宾馆酒店;四星级宾馆,太子路32号鸿隆公寓2层(近南海酒店),113.915086,22.483747,广东省,深圳市,南山区,4.5,4,0755-26816666;0755-26816164,http://store.is.autonavi.com/showpic/a4d30110e207516d18cad66a3414931c,http://store.is.autonavi.com/showpic/e0e1e544f0e6712a6d5ba81da5960a76,http://store.is.autonavi.com/showpic/a6df915bd2ad6539d60e1e1e1235031d
B02F38IU3N,深圳泊莱酒店(坂田华为店),住宿服务;宾馆酒店;四星级宾馆,坂田街道吉华路535号,114.070739,22.639202,广东省,深圳市,龙岗区,4.2,3,0755-89508222,http://store.is.autonavi.com/showpic/d35cf671d972723fef212ad25684077f,http://store.is.autonavi.com/showpic/40c487bb9ea5b4094c0c759cda592a67,http://store.is.autonavi.com/showpic/df70f4798aa3e7c2370615df1a2d984c
B02F38ISNW,锦江之星酒店(深圳万象城店),住宿服务;宾馆酒店;经济型连锁酒店,嘉宾路4025-1号,114.113267,22.536856,广东省,深圳市,罗湖区,4.3,3,0755-22160688;4008209999,http://store.is.autonavi.com/showpic/3584513da3e85f256c29ddb7910240d7,http://store.is.autonavi.com/showpic/a63f5624a9f53767a2d39075046b54d1,http://store.is.autonavi.com/showpic/d51b61027fc6615248fcf05bded49da6
B02F37VQ3E,智民大酒店,住宿服务;宾馆酒店;四星级宾馆,坂田街道吉华路525号,114.071315,22.639629,广东省,深圳市,龙岗区,3.8,3,0755-89508668;13538027322,http://store.is.autonavi.com/showpic/966e4a96c0971c4968e81ee6bc4d3faf,http://store.is.autonavi.com/showpic/4722a83c387bf987d2da7cb0e3e202f7,http://store.is.autonavi.com/showpic/56258c4522535e6ef3515b18fa730d9d
B02F37VESH,深圳东方精品酒店(黄贝岭店),住宿服务;宾馆酒店;三星级宾馆,深南大道1108号设计院大厦3-6楼,114.134265,22.546095,广东省,深圳市,罗湖区,4.4,3,0755-25408099;0755-25431199,http://store.is.autonavi.com/showpic/44ef9b06b2a4f5e86bd049f05c97887d,http://store.is.autonavi.com/showpic/3371a578fec3125287a2285215214c3b,http://store.is.autonavi.com/showpic/6e2c823140674604b08b7289e2bde1e7
B02F37VJUC,金色阳光酒店(深圳龙岗南联站店),住宿服务;宾馆酒店;宾馆酒店,龙岗路14号,114.271029,22.721694,广东省,深圳市,龙岗区,4.4,3,0755-89266288;18138837036,http://store.is.autonavi.com/showpic/7823aac6abd430887b4b7183fd135ff6,http://store.is.autonavi.com/showpic/4c0d73e5a4719604a7f1c9b13634886a,http://store.is.autonavi.com/showpic/238e5bf2d20002248ec276c8313b9a75
B02F37WKGV,万福盈酒店,住宿服务;宾馆酒店;经济型连锁酒店,福永白石厦大道龙翔路105号(近万福广场),113.823082,22.673264,广东省,深圳市,宝安区,3.7,5,0755-27391968,http://store.is.autonavi.com/showpic/24b67d02222fd9d23c616d3a01a3f9ca,http://store.is.autonavi.com/showpic/6e58e269a2ab0395eaea0020b1adf108,http://store.is.autonavi.com/showpic/7f2b01c08e304a70249e0d10d324737c
B02F37WHIS,龙源客栈(爱联店),住宿服务;宾馆酒店;宾馆酒店,爱联爱华路92号,114.229451,22.698205,广东省,深圳市,龙岗区,3.9,3,0755-28953666,http://store.is.autonavi.com/showpic/aaf73f1b55abc15662b689d3ab819189,http://store.is.autonavi.com/showpic/2039c843ef20fc121a5e1d8a864e0a98,http://store.is.autonavi.com/showpic/d18e75c81517ea590208e0691c0632ad
B02F37VHWE,维也纳酒店(深圳机场店),住宿服务;宾馆酒店;三星级宾馆,下沙十二巷3号,113.823733,22.649678,广东省,深圳市,宝安区,4.6,5,0755-29987688;13510300209;4008882888,http://store.is.autonavi.com/showpic/000ad0f59e1d62e97478c808935dbb28,http://store.is.autonavi.com/showpic/3f1b3d660a7878bfd1f4236e7ae2e3ce,http://store.is.autonavi.com/showpic/2ed1c45d3957f66f368ca4880f1cad35
B02F37W9SK,凯利达商务酒店,住宿服务;宾馆酒店;宾馆酒店,海德三道195天利中央广场B座1层,113.935071,22.518329,广东省,深圳市,南山区,4.2,4,0755-86615188;13414462256,http://store.is.autonavi.com/showpic/899c91473a7563a93400a5ea3ec2eea9,http://store.is.autonavi.com/showpic/e2fdec82ca66bafecd43918985014e67,http://store.is.autonavi.com/showpic/6920e29a6a50bd972f23e358cf80573d
B02F38ISI3,宜居时尚酒店,住宿服务;宾馆酒店;宾馆酒店,华侨新村西堤一巷32号,113.872916,22.567286,广东省,深圳市,宝安区,4.1,4,0755-29985669;0755-29882345,http://store.is.autonavi.com/showpic/69c76d9d3e5a5020c54559bd65d2db24,http://store.is.autonavi.com/showpic/0b4c40220fe53b117a2edd1e5e24a9bd,http://store.is.autonavi.com/showpic/e5b799c8290b1bc906108711a8ad957f
B02F37TNXY,悦海璟商务酒店,住宿服务;宾馆酒店;三星级宾馆,南山大道2329号新海大厦1-3层,113.923576,22.538838,广东省,深圳市,南山区,4.1,3,0755-26668588,http://store.is.autonavi.com/showpic/16424292975ed6ecbd191f9551347a6b,http://store.is.autonavi.com/showpic/c6cb729a414c3b90e9928052b4acb2b9,http://store.is.autonavi.com/showpic/dc72bee0a657f6b6b32ed35535d6e274
B02F37WJMJ,维也纳酒店(深圳横岗新城店),住宿服务;宾馆酒店;四星级宾馆,横岗街道六约社区埔厦路86号新城广场A座,114.185443,22.645679,广东省,深圳市,龙岗区,4.7,3,0755-28665555;4008882888,http://store.is.autonavi.com/showpic/c3385938a76c0ed55f673482abb984e8,http://store.is.autonavi.com/showpic/e468938772bfeb2a520fb65d948029d1,http://store.is.autonavi.com/showpic/93334cdd2f9ed26f645d19acfe177adb
B02F37W9T1,金皇大酒店,住宿服务;宾馆酒店;宾馆酒店,人民北路33号,114.025859,22.636683,广东省,深圳市,龙华区,4.5,3,0755-88802888,http://store.is.autonavi.com/showpic/51f4be9e6c7550bcc58870d18be52fbb,http://store.is.autonavi.com/showpic/a5934dbb494261ff46411ffbabaafd0e,http://store.is.autonavi.com/showpic/64705a2bd4e1b69d8241fadd85d46fc4
B02F37W9SO,汉庭酒店(深圳华强北振兴路店),住宿服务;宾馆酒店;经济型连锁酒店,华富路1048号新欣大厦A座1层、3-5层,114.081754,22.546198,广东省,深圳市,福田区,4.3,3,0755-33062233,http://store.is.autonavi.com/showpic/3ae4fa827e5ab86b4743cbbae506fb4a,http://store.is.autonavi.com/showpic/f9dc5171df0b0f4224cdedeb4ad29ef5,http://store.is.autonavi.com/showpic/a401209bcf0e97c209e2b328257d9dba
B02F37VKD4,信兴假日酒店(五和店),住宿服务;宾馆酒店;宾馆酒店,吉华路665-1号,114.057650,22.634007,广东省,深圳市,龙岗区,4.6,4,0755-61219288;0755-61210288,http://store.is.autonavi.com/showpic/1ca1347a84dce92c5960d0c01d7d9707,http://store.is.autonavi.com/showpic/f6e2ac5b697dd853cba3872aca209391,http://store.is.autonavi.com/showpic/dbeedf150a218835399eee3b891fa6b3
B02F300B67,广信酒店,住宿服务;宾馆酒店;宾馆酒店,人民南路2069号19层,114.118469,22.538943,广东省,深圳市,罗湖区,3.9,5,0755-82113818,http://store.is.autonavi.com/showpic/7612110f23c4e1a2664f948dd63d6d64,http://store.is.autonavi.com/showpic/0e9d29312d870ef3b7c1e123ed1fad8c,http://store.is.autonavi.com/showpic/a50d8642477fb7d56f7a7e63aec2adb3
B02F37VJIP,威尔斯酒店,住宿服务;宾馆酒店;三星级宾馆,蚝业路1号,113.801274,22.679934,广东省,深圳市,宝安区,4.2,3,0755-29912888,http://store.is.autonavi.com/showpic/e041a309de497c73035335f0dad10bb3,http://store.is.autonavi.com/showpic/b3d38bd79df41b07eda9c5498c6a729b,http://store.is.autonavi.com/showpic/12faf51eebdc2b1bb271ecc997597db4
B02F37UHYD,汉庭酒店深圳会展中心店(原汉庭酒店深圳新洲店),住宿服务;宾馆酒店;经济型连锁酒店,新洲南路2043号世纪工艺品广场307栋,114.046072,22.517963,广东省,深圳市,福田区,3.9,3,0755-33912833,http://store.is.autonavi.com/showpic/2ff8e5883f9e63ce5698f4e5ee9f41c3,http://store.is.autonavi.com/showpic/cf75062b36c4785fe5a0091fb79b7ac2,http://store.is.autonavi.com/showpic/1ccdde593b2133cbfbf257734de2ba30
B02F38IR3X,新旺记酒店,住宿服务;宾馆酒店;三星级宾馆,龙岗街道龙东社区爱南路63号,114.291897,22.713416,广东省,深圳市,龙岗区,4.4,3,0755-84872888;0755-84861698,http://store.is.autonavi.com/showpic/c368c7cca1be0bbf267132d2cd6011bc,http://store.is.autonavi.com/showpic/9d2ecfa6ff93a0d9e984a5ee212f685a,http://store.is.autonavi.com/showpic/ee65aba3e2974e2188679e22d7ce2027
B02F37W9SH,圈子艺术酒店,住宿服务;宾馆酒店;宾馆酒店,宝安大道1146号,113.894035,22.556933,广东省,深圳市,宝安区,4.0,4,0755-33686668;0755-33866338;0755-33868886,http://store.is.autonavi.com/showpic/d414b1ee826a807720ca6ff975e6af28,http://store.is.autonavi.com/showpic/2cde907db44bb29963125fbbe70ece2c,http://store.is.autonavi.com/showpic/54711a76ad3883fc27c220a38091a463
B02F38IAYR,锦航酒店,住宿服务;宾馆酒店;四星级宾馆,樟树布社区布沙路78号,114.154283,22.606257,广东省,深圳市,龙岗区,4.4,3,0755-89898888;0755-28468288,http://store.is.autonavi.com/showpic/c8a2c643286adf1aa70a64a9c3712982,http://store.is.autonavi.com/showpic/10b101b3dd99e0179776c48fdfbd17e3,http://store.is.autonavi.com/showpic/26ec7ec6d984ea642a9d7123903b073a
B02F37WDL0,维也纳酒店(深圳松岗立业路店),住宿服务;宾馆酒店;四星级宾馆,立业路8号兆丰祥商务大厦1层,113.854204,22.763245,广东省,深圳市,宝安区,4.8,3,0755-33898666;4008882888,http://store.is.autonavi.com/showpic/1bd729ec5ac2b7be80bad454db287995,http://store.is.autonavi.com/showpic/41c31ee1f3c9a6407a60b8485f5ee1f8,http://store.is.autonavi.com/showpic/55bfeace3521add7eabee4f9f8b77c7f
B02F37UQLR,深圳国汇大酒店(人民大厦),住宿服务;宾馆酒店;四星级宾馆,深南大道6002号人民大厦,114.047732,22.540814,广东省,深圳市,福田区,4.4,3,0755-83928888,http://store.is.autonavi.com/showpic/30a426809ae7084096a78a5acefee4c2,http://store.is.autonavi.com/showpic/9f84dfa0667349b387706af07d54f1e8,http://store.is.autonavi.com/showpic/e2d1de857cdc5d8ba8d169fb8e52cb87
B02F38IS4X,咖酷旅馆,住宿服务;旅馆招待所;旅馆招待所,东部华侨城大侠谷,114.301618,22.60726,广东省,深圳市,盐田区,4.4,3,0755-22172066,http://store.is.autonavi.com/showpic/e797a7f17a6478bb3edb7daed9023c04,http://store.is.autonavi.com/showpic/0e0f595c28d538ee3fbf42692ebdf62b,http://store.is.autonavi.com/showpic/239801a5040c81228a4c90f930c96205
B02F37WO28,呼噜栈酒店(中信分店),住宿服务;宾馆酒店;三星级宾馆,深南中路1016号,114.100613,22.541426,广东省,深圳市,福田区,4.3,3,0755-82093088;0755-82094086;0755-82094110,http://store.is.autonavi.com/showpic/a923c0591b4831985ff62dd37b85fccf,http://store.is.autonavi.com/showpic/bf04778b269dd87c9b095c9890e08f21,http://store.is.autonavi.com/showpic/84f3aa20c8a9e238df32965324b327bc
B02F37VM2P,东方半山酒店,住宿服务;宾馆酒店;四星级宾馆,布吉街道东西干道18号,114.134254,22.615514,广东省,深圳市,龙岗区,4.4,5,0755-33289999;0755-33289966,http://store.is.autonavi.com/showpic/b4587797363a034340a4bd8339d4c082,http://store.is.autonavi.com/showpic/e4450dd207f3eab5b9cdc8807ad738f0,http://store.is.autonavi.com/showpic/19ade61c16c627374a4db3a661739579
B02F38IOPT,仙之湖酒店,住宿服务;宾馆酒店;宾馆酒店,新秀路9号2层(新秀地铁站B出口),114.150168,22.547609,广东省,深圳市,罗湖区,4.0,3,0755-22199988,http://store.is.autonavi.com/showpic/9009ea3c9e1fd93910f31bab171ea883,http://store.is.autonavi.com/showpic/3eabacbe51c08b93251b7ffcacfdb55e,http://store.is.autonavi.com/showpic/74823abb735595e0b62251dae01a0db3
B02F301BD4,金龙大酒店(鸿基路),住宿服务;宾馆酒店;宾馆酒店,深汕公路龙东地段146号(龙东社区公交站旁),114.289992,22.724063,广东省,深圳市,龙岗区,4.1,5,0755-84861999;0755-84861305,http://store.is.autonavi.com/showpic/38381e4ea98ea63dcda6659006f493b5,http://store.is.autonavi.com/showpic/aae3287bfb0d086c213d6b99883d591c,http://store.is.autonavi.com/showpic/f42700a696e5fb43649d99adf9a2603d
B02F37UFKI,圣宝宾馆(福田分店),住宿服务;宾馆酒店;宾馆酒店,石厦东村321号,114.052417,22.520836,广东省,深圳市,福田区,3.8,4,0755-83830599;0755-83831599,http://store.is.autonavi.com/showpic/0d0d88f0cc1285776d63aa6002452566,http://store.is.autonavi.com/showpic/e4b2606ca49234ce40102c02fae2f23b,http://store.is.autonavi.com/showpic/c0c006895e2fd13af3ef2614313e1012
B02F37VJB7,名典商旅酒店(深圳宝安店),住宿服务;宾馆酒店;宾馆酒店,庄边工业一路2号,113.884756,22.587317,广东省,深圳市,宝安区,4.3,4,0755-27505518;0755-27505555,http://store.is.autonavi.com/showpic/56cb5672912ce459bf0c3f46563a8601,http://store.is.autonavi.com/showpic/0f1f8dcd2cdfaea5b21ab730b00b8960,http://store.is.autonavi.com/showpic/85aa54dc354900157ba5dac99c64dc1d
B02F38JBU7,维也纳酒店(深圳火车站店),住宿服务;宾馆酒店;经济型连锁酒店,东门南路3005号寸金大厦1层,114.122237,22.542053,广东省,深圳市,罗湖区,4.5,3,0755-83559988,http://store.is.autonavi.com/showpic/81a42cea73d4822a5ce1d67af6d9e90e,http://store.is.autonavi.com/showpic/488ada9da7d25fef61987e3c8f715544,http://store.is.autonavi.com/showpic/c58530a6d43d087c39c98a019d8ebd82
B02F37VMGL,联盛酒店,住宿服务;宾馆酒店;三星级宾馆,观澜大道214号,114.046314,22.711962,广东省,深圳市,龙华区,4.4,3,0755-28014128;0755-28016988;0755-28010222,http://store.is.autonavi.com/showpic/9ede3a82016de0e911ed904d5cf73206,http://store.is.autonavi.com/showpic/95703678d8a05fe16511b39c0ec40ba4,http://store.is.autonavi.com/showpic/9c0679087976115e459cbd3e188bb305
B02F305TP2,博林圣海伦酒店,住宿服务;宾馆酒店;四星级宾馆,华侨城侨城东路2002号,113.997967,22.536064,广东省,深圳市,福田区,4.6,3,0755-82829966,http://store.is.autonavi.com/showpic/0e6b83ff5087ccd871f91464568db21d,http://store.is.autonavi.com/showpic/650e4126adaa3136b45dea3b18267071,http://store.is.autonavi.com/showpic/e7871ee0284af5a3dd5cef01f2571c1f
B02F37U0SA,商旅时尚酒店(华强北店),住宿服务;宾馆酒店;三星级宾馆,兰光路16-18号华明大厦403栋,114.092011,22.545487,广东省,深圳市,福田区,3.9,3,0755-83356868;0755-83249988,http://store.is.autonavi.com/showpic/066e97266571fdbe5791c7122dcb1bc7,http://store.is.autonavi.com/showpic/977c546fb2d9cfdda0bf3ef26fc0ca09,http://store.is.autonavi.com/showpic/5a1d80b0fb6e80032813726738b076c5
B02F37VQT9,龙泉酒店,住宿服务;宾馆酒店;四星级宾馆,人民路与工业路交汇处西北方向,114.026604,22.644943,广东省,深圳市,龙华区,4.3,4,0755-28111111;0755-27748298,http://store.is.autonavi.com/showpic/5fe1f8327db5339279ea76a380b90692,http://store.is.autonavi.com/showpic/79aa4c5c19ffce61d9cb73149537a6fd,http://store.is.autonavi.com/showpic/2aa79f084b1c45ac94d2f28f3920cecf
B02F37W378,深圳益田威斯汀酒店,住宿服务;宾馆酒店;五星级宾馆,深南大道9028号-2,113.975545,22.537286,广东省,深圳市,南山区,4.6,5,0755-26988888;0755-86298989,http://store.is.autonavi.com/showpic/ae898c756cfef1d2f7dbdd65add0f1ff,http://store.is.autonavi.com/showpic/7fcddabafa55f778214ea63d159da48a,http://store.is.autonavi.com/showpic/617c18445ca759b14add8b00387f1e40
B02F38J27P,宝悦酒店,住宿服务;宾馆酒店;四星级宾馆,西乡大道298-12号,113.859007,22.570016,广东省,深圳市,宝安区,4.4,3,0755-88888818;0755-23089231,http://store.is.autonavi.com/showpic/38a254ceef48606822fce67fb12e7c12,http://store.is.autonavi.com/showpic/c8f9d4244d18548cefc9000e669b4353,http://store.is.autonavi.com/showpic/7aae778e362a5d73812ca2c97ebfef98
B02F38IGX3,深圳龙岗珠江皇冠假日酒店,住宿服务;宾馆酒店;五星级宾馆,龙岗中心城龙翔大道9009号,114.25042,22.723149,广东省,深圳市,龙岗区,4.6,3,0755-33181888;0755-36900628,http://store.is.autonavi.com/showpic/94fc7215e8007cc9cd9d322e11657f63,http://store.is.autonavi.com/showpic/b1b35f7872cac40c3f984d1c01f42e52,http://store.is.autonavi.com/showpic/c82cb26b5cd90dad58f047a68bcac49b
B02F37TZQ8,丽景商务酒店,住宿服务;宾馆酒店;四星级宾馆,白石洲二街18,113.971033,22.531813,广东省,深圳市,南山区,4.2,3,0755-86103666;0755-86237222,http://store.is.autonavi.com/showpic/bd1d9cebb7c67d112c2e69d3e67eb16a,http://store.is.autonavi.com/showpic/cc77830cf72acbb00b67acba4509aef3,http://store.is.autonavi.com/showpic/194df7c6206582429c2a813664e5f816
B02F37VBXS,罗芳大酒店,住宿服务;宾馆酒店;三星级宾馆,罗沙路5087号(罗芳立交桥旁),114.145771,22.551909,广东省,深圳市,罗湖区,2.7,4,0755-25027502;0755-25027503,http://store.is.autonavi.com/showpic/d7add88b4ad7e784feb0fcad3f2e45f7,http://store.is.autonavi.com/showpic/813c02bf5e88e922740a1537af5318f0,http://store.is.autonavi.com/showpic/9d979661e1cec03c6988715b110d3818
B02F37WRW8,星亮酒店,住宿服务;宾馆酒店;四星级宾馆,沙头角沙深路103号,114.224916,22.551212,广东省,深圳市,盐田区,4.0,3,0755-25557888;0755-82635801,http://store.is.autonavi.com/showpic/02e5a064b0d9761febae46b4d73d545f,http://store.is.autonavi.com/showpic/0bc40d6325d49783b658af8c8577aa57,http://store.is.autonavi.com/showpic/9830c08db00ba12d31cd61e5b6db914c
B02F38IYN6,有园酒店,住宿服务;宾馆酒店;四星级宾馆,南海大道1113-1115号花样年美年广场,113.920168,22.50308,广东省,深圳市,南山区,4.4,3,0755-26899599,http://store.is.autonavi.com/showpic/fcf21793979f4206cbb017eb60686e84,http://store.is.autonavi.com/showpic/2b6e2368a9a144e813aaa12f7aa56ca0,http://store.is.autonavi.com/showpic/22cd40e6206803faccb35a897f60addf
B02F38JF58,诺盟酒店(坂田华为店),住宿服务;宾馆酒店;经济型连锁酒店,坂田街道五和大道4004号,114.058054,22.658887,广东省,深圳市,龙岗区,4.2,3,0755-66820200,http://store.is.autonavi.com/showpic/43984d9aaf98c46c71785139296e14c0,http://store.is.autonavi.com/showpic/3285279f1ef8fd98020fde1bb30e70b4,http://store.is.autonavi.com/showpic/ceb019e41de542f1a11b212bb547aef4
B02F37VTFR,皇轩酒店,住宿服务;宾馆酒店;五星级宾馆,福民路28号,114.060768,22.523494,广东省,深圳市,福田区,4.3,3,0755-82569888;0755-82889000,http://store.is.autonavi.com/showpic/bc337d5a66e403fc87525fe7000bb23e,http://store.is.autonavi.com/showpic/2d6fac0dba7c93a88e50908caf0c5ab4,http://store.is.autonavi.com/showpic/e3a4cf617ddc2fa21397c98a70a6c2a5
B02F38JLMP,九号宾馆(华发北路),住宿服务;宾馆酒店;宾馆酒店,华发北路72号3层,114.089263,22.547811,广东省,深圳市,福田区,3.2,3,0755-28881619,http://store.is.autonavi.com/showpic/690556ac84bbd7823b725ebf4a01e0dd,http://store.is.autonavi.com/showpic/3d442d4bab94ca8166515541ccef81ca,http://store.is.autonavi.com/showpic/79e8c1cf93b0b6fa2a477fcadea6e159
B02F306R6B,太阳花酒店(皇岗店),住宿服务;宾馆酒店;宾馆酒店,福田南路32号,114.077645,22.527549,广东省,深圳市,福田区,4.3,5,0755-83335888,http://store.is.autonavi.com/showpic/72a13f0941996a486637f2921f562f96,http://store.is.autonavi.com/showpic/335f1de2315e23770951cf2222ebbce4,http://store.is.autonavi.com/showpic/9695bf9b9984179290aaf69b5448a224
B02F37WGLJ,维多利亚商务酒店(翻身地铁站店),住宿服务;宾馆酒店;宾馆酒店,翻身路159-3号,113.888337,22.566412,广东省,深圳市,宝安区,4.2,3,0755-27996688;0755-27388022,http://store.is.autonavi.com/showpic/41d9b3a68b6cf969c8a6566ec523658b,http://store.is.autonavi.com/showpic/cd10c39edcd2fc0c29c0958bf82b1006,http://store.is.autonavi.com/showpic/25316ca9d7a47b942954ec6ab2d06cb9
B02F37V2IM,金茂深圳JW万豪酒店,住宿服务;宾馆酒店;五星级宾馆,深南大道6005号,114.03231,22.536469,广东省,深圳市,福田区,4.7,5,0755-22698888;0755-22698230,http://store.is.autonavi.com/showpic/181438a388964750c4834f2ca18e6756,http://store.is.autonavi.com/showpic/2f1adfb698780466b384ba4f29959777,http://store.is.autonavi.com/showpic/d58b94d1c8fd881169fd9498d30ae6ab
B02F37W69S,维也纳酒店(深圳东门店),住宿服务;宾馆酒店;经济型连锁酒店,兴湖路48号(近晒布地铁站A1出口),114.123601,22.548086,广东省,深圳市,罗湖区,4.6,4,0755-33090022;4008882888,http://store.is.autonavi.com/showpic/f41073dbc7bda233ca2532f8af4cf533,http://store.is.autonavi.com/showpic/74bbb3defe84733c7db5cb81d2467869,http://store.is.autonavi.com/showpic/05716a8f176f2ff452a18cecb6d12111
B02F300AC0,财富酒店,住宿服务;宾馆酒店;四星级宾馆,华强南路3021,114.086526,22.539423,广东省,深圳市,福田区,4.4,4,0755-83199999;0755-83000752,http://store.is.autonavi.com/showpic/c074e7f2d693a879eb45aebccf5bb059,http://store.is.autonavi.com/showpic/30ef05604c6430d499dc6b2755b07d8f,http://store.is.autonavi.com/showpic/ab20db20f101fa028107710292faeb0c
B02F37VFCJ,国宾大酒店,住宿服务;宾馆酒店;四星级宾馆,深南东路1121号,114.132798,22.54491,广东省,深圳市,罗湖区,4.4,3,0755-25122888,http://store.is.autonavi.com/showpic/baf1bc74743475b6596bb8e5f55e4340,http://store.is.autonavi.com/showpic/a05404a761340e3a9e6f54ab00a4508a,http://store.is.autonavi.com/showpic/78bd7b90fd31706c344f57175b4033ae
B0FFFA23H5,金华大酒店,住宿服务;宾馆酒店;四星级宾馆,华侨新村西堤一巷26-28号,113.873363,22.567854,广东省,深圳市,宝安区,4.0,3,0755-23351937;0755-22233168;13410508286,http://store.is.autonavi.com/showpic/8c9b996233f591ea71043580e1260b70,http://store.is.autonavi.com/showpic/5af8498249a69e38359dbefc16c43659,http://store.is.autonavi.com/showpic/bccd16828875d96bb92a6fd229415761
B02F37VFG9,汉庭酒店(深圳华强中心公园店),住宿服务;宾馆酒店;经济型连锁酒店,振华西路21号田面新村设计之都3-4栋,114.075751,22.545093,广东省,深圳市,福田区,4.1,3,0755-33912788;0755-33912777;4008121121,http://store.is.autonavi.com/showpic/fe94f97ccde235720cbb21c49dfe7a6e,http://store.is.autonavi.com/showpic/ad9fc26fbaf823dd16ee618c29b77035,http://store.is.autonavi.com/showpic/8ec9f4ff4bfd3ced4f7611dd1f75e285
B02F37VPMH,海世界酒店,住宿服务;宾馆酒店;三星级宾馆,大梅沙盐梅路104号,114.305486,22.592088,广东省,深圳市,盐田区,4.3,3,0755-25061133;13712107949,http://store.is.autonavi.com/showpic/dc28ac394dbbf6b7f2d0b93e6ffa99bb,http://store.is.autonavi.com/showpic/45740d9240658b4304e8aa1a7e549afb,http://store.is.autonavi.com/showpic/dd35f5e34921b232e331ce73b0a1f443
B02F38IYY0,百福来商务酒店,住宿服务;宾馆酒店;三星级宾馆,愉龙路65号,114.223265,22.721784,广东省,深圳市,龙岗区,4.3,4,0755-28932999,http://store.is.autonavi.com/showpic/fcb3ca7025984e0e8cfb66dbea08e464,http://store.is.autonavi.com/showpic/67a5b8d593346163d7b1966e1a712e43,http://store.is.autonavi.com/showpic/101223eabcf32752b11ad2bf10e60f7f
B02F305ZBB,皇悦酒店,住宿服务;宾馆酒店;四星级宾馆,福民路199号,114.050017,22.522559,广东省,深圳市,福田区,4.0,5,0755-83818888;0755-82983110,http://store.is.autonavi.com/showpic/174cc97d97059f12934116ec63d47ccf,http://store.is.autonavi.com/showpic/1f842d28f655823e65eed75038d791e5,http://store.is.autonavi.com/showpic/7cc9f02ed9536d3f563d863f3c45ba35
B02F37UDXZ,枫叶时尚酒店,住宿服务;宾馆酒店;三星级宾馆,南新路1177号(华联花园斜对面),113.91866,22.521194,广东省,深圳市,南山区,4.1,3,0755-86066111;4008866633,http://store.is.autonavi.com/showpic/a522ca0877d9d8df3d1ea1c4a8b75cec,http://store.is.autonavi.com/showpic/e96da6709751ce72409c01c0ce6d3e26,http://store.is.autonavi.com/showpic/dd4b1bda4c410d4b6c15466a2758cf1c
B02F37WM3F,蓬客精品酒店(南山店),住宿服务;宾馆酒店;四星级宾馆,创业路与后海大道交汇处电力花园1期1号楼,113.934317,22.513932,广东省,深圳市,南山区,4.3,3,0755-26668999,http://store.is.autonavi.com/showpic/07ec87fc00e3d2444ff9b495227cb5ed,http://store.is.autonavi.com/showpic/58f53ee6d3a7b261e44b8f1118ab5cc0,http://store.is.autonavi.com/showpic/d6f131e0e9d61da46a6472d4bcc6d2fd
B02F3062L4,深圳福朋喜来登酒店,住宿服务;宾馆酒店;五星级宾馆,桂花路5号,114.06232,22.511648,广东省,深圳市,福田区,4.5,3,0755-83599999,http://store.is.autonavi.com/showpic/8d06992e8a380e433fc6589a200526f9,http://store.is.autonavi.com/showpic/19f940d055ebc05c17d45ab226ba9064,http://store.is.autonavi.com/showpic/bfacb9b7d534438a8b1a23b982e39385
B02F37V75E,圣廷轩酒店,住宿服务;宾馆酒店;宾馆酒店,锦联路9号,114.137157,22.54154,广东省,深圳市,罗湖区,4.1,4,0755-22238988;0755-25199088,http://store.is.autonavi.com/showpic/01a4b6237aaee44df8364c8ae90f08c6,http://store.is.autonavi.com/showpic/90b41138c336eeb7445bb2448cbdd213,http://store.is.autonavi.com/showpic/bb093f13da5f9665d2a514b37e9b7c62
B02F37WNU0,桂诚酒店(Greatsun Hotel),住宿服务;宾馆酒店;宾馆酒店,红桂路1024-8号,114.111058,22.550849,广东省,深圳市,罗湖区,4.1,3,0755-25577222;0755-25896552,http://store.is.autonavi.com/showpic/005074d508f96df8531c743f99a9d574,http://store.is.autonavi.com/showpic/4a6093abd8cefd426627eed362c717e5,http://store.is.autonavi.com/showpic/729953cf05c9a91ff027fc721b9b7173
B02F38JBUB,维也纳酒店(深圳沙井中心路店),住宿服务;宾馆酒店;三星级宾馆,沙井镇中心路卓越时代大厦6-10层(中心路与北环路交汇处),113.830643,22.740013,广东省,深圳市,宝安区,4.8,3,0755-23008688;18948166771,http://store.is.autonavi.com/showpic/246234d79e69f8deea57ec7148cd1fd4,http://store.is.autonavi.com/showpic/370bdb4016edb188d4c43059cb7627ac,http://store.is.autonavi.com/showpic/00c27277f10efb19bbb989613ee30ae0
B02F37VQI3,深圳机场福惠酒店(原福惠商务宾馆),住宿服务;宾馆酒店;宾馆酒店,福围路199号,113.823246,22.653037,广东省,深圳市,宝安区,4.1,3,0755-29987222;13809892075,http://store.is.autonavi.com/showpic/194f94e3501ca4accf32f3329f2a1786,http://store.is.autonavi.com/showpic/3afa78c0a450c02606e068aba141d6ad,http://store.is.autonavi.com/showpic/dcefda97de64853ed95ceb64c34691ba
B02F37W29P,迎君酒店(世界之窗店),住宿服务;宾馆酒店;三星级宾馆,白石洲沙河街工贸10栋,113.968873,22.544641,广东省,深圳市,南山区,4.1,3,0755-86299333;13798546100;0755-26603965,http://store.is.autonavi.com/showpic/3ae2e7302329c1f5f1ffc3b43b812b9a,http://store.is.autonavi.com/showpic/78ec9dea9e36e6088daf5e4616a47631,http://store.is.autonavi.com/showpic/03730a3c0647a33eff84a84ad5dacc2e
B02F38IS32,维也纳酒店(深圳龙岗南联店),住宿服务;宾馆酒店;三星级宾馆,碧新路龙岗段2101号,114.265641,22.722747,广东省,深圳市,龙岗区,4.7,3,0755-84833666,http://store.is.autonavi.com/showpic/546fa7d4aaa4ef25b25166f283e3efe7,http://store.is.autonavi.com/showpic/57bfac910a02c4cddc50111611b68d07,http://store.is.autonavi.com/showpic/1b789119fb98fe4a1a184d98b0af6a81
B02F38J23P,豪园酒店,住宿服务;宾馆酒店;三星级宾馆,福强路1605号益田豪园居,114.057856,22.514874,广东省,深圳市,福田区,4.0,5,0755-83339988,http://store.is.autonavi.com/showpic/9868ae80a065cb42be9ee07fff0af284,http://store.is.autonavi.com/showpic/0fdadd7e720e233038bef4280c1750c9,http://store.is.autonavi.com/showpic/910ecc720928295912f5512d8a6d0230
B02F37W1RW,龙翔宾馆(清湖地铁站店),住宿服务;宾馆酒店;三星级宾馆,龙华街道办和平路128号,114.035161,22.661879,广东省,深圳市,龙华区,3.3,3,0755-81799997;0755-81799987,http://store.is.autonavi.com/showpic/c7500d94895842d66ed80e9fdb789ef5,http://store.is.autonavi.com/showpic/af0b4d0538dbf75f7c33368428492842,http://store.is.autonavi.com/showpic/ce90ae6932a0563d898bfd186face953
B02F300036,小梅沙度假村,住宿服务;住宿服务相关;住宿服务相关|体育休闲服务;度假疗养场所;度假村,盐葵路39号(小梅沙景区内),114.325694,22.600159,广东省,深圳市,盐田区,4.1,5,0755-22321540;18924658956;0755-25060000,http://store.is.autonavi.com/showpic/7440d5d784d44372a6babf4b1534bbc5,http://store.is.autonavi.com/showpic/b0aa060dcea11ee4f36bf101e48a8313,http://store.is.autonavi.com/showpic/b78a3f4d458f993295edc455bd8ae5ef
B02F37VH4O,深圳星雅轩酒店(布吉店),住宿服务;宾馆酒店;四星级宾馆,中兴路13号,114.124427,22.607727,广东省,深圳市,龙岗区,4.3,4,0755-28558888,http://store.is.autonavi.com/showpic/605b061221fffe931b3b89d0073e9ba2,http://store.is.autonavi.com/showpic/592f42a1058e2090d80c8a472faddbe0,http://store.is.autonavi.com/showpic/7fa63337581e46d37637614a20e0153c
B02F300E12,深圳五洲宾馆,住宿服务;宾馆酒店;五星级宾馆,深南大道6001号,114.047693,22.537576,广东省,深圳市,福田区,4.5,4,0755-82938000,http://store.is.autonavi.com/showpic/8dcba7d9a7987621089e046a32be651e,http://store.is.autonavi.com/showpic/f895c109d2bc040ea9fb02cacd1fa214,http://store.is.autonavi.com/showpic/e163c50008c4ee6d63e679bf1daa3e61
B02F37TS1L,华阳宾馆(学府路店),住宿服务;宾馆酒店;宾馆酒店,学府路172-10号,113.917794,22.528339,广东省,深圳市,南山区,3.9,3,0755-26460512,http://store.is.autonavi.com/showpic/be55481aee361950c0ec052ee47e1e90,http://store.is.autonavi.com/showpic/fa84a40d84be8594ec8df37f7c37321e,http://store.is.autonavi.com/showpic/79bae2a82b93807cd614628abab2879f
B02F37VI5K,汉庭酒店(深圳海上世界店),住宿服务;宾馆酒店;经济型连锁酒店,蛇口太子路61号,113.915541,22.486299,广东省,深圳市,南山区,4.0,3,0755-26801166,http://store.is.autonavi.com/showpic/e52290727287648340c6a9dff09508f4,http://store.is.autonavi.com/showpic/400e69938891cbcc7dd293d7c0467fe4,http://store.is.autonavi.com/showpic/5315982efeed0b4256d3b2a50473c272
B02F38IO87,维也纳酒店(平湖广场店),住宿服务;宾馆酒店;三星级宾馆,平湖镇双拥街1号,114.129343,22.695819,广东省,深圳市,龙岗区,4.7,3,0755-89692888;13923431309,http://store.is.autonavi.com/showpic/269c0f608534f4c2b7e09751db26c7a0,http://store.is.autonavi.com/showpic/cb7550b75166064f30494f97bc1bb542,http://store.is.autonavi.com/showpic/1551b3d3ce9e40d02b77fe1bed1ca230
B02F37WRSX,怡景湾大酒店,住宿服务;宾馆酒店;四星级宾馆,龙城街道黄阁坑社区清林路229号,114.214762,22.718774,广东省,深圳市,龙岗区,4.4,3,0755-33322222;0755-89559999,http://store.is.autonavi.com/showpic/dc8d80bf299e63d1946426456145ae21,http://store.is.autonavi.com/showpic/f8ae31e90a0cae2810b0fa54b4b0ab80,http://store.is.autonavi.com/showpic/037dcf951b3ff832fc7bf6efe7039c0e
B02F38JGXM,山水时尚酒店(深圳华南城店),住宿服务;宾馆酒店;经济型连锁酒店,平新北路223号,114.120476,22.688419,广东省,深圳市,龙岗区,4.5,4,0755-84691111,http://store.is.autonavi.com/showpic/936812634daa4179fc532b47177d641b,http://store.is.autonavi.com/showpic/a09510aed4b2925422578acb9678aa77,http://store.is.autonavi.com/showpic/3f64f9086d2675628714122860a11f3a
B02F37W0XY,枫叶城市酒店,住宿服务;宾馆酒店;四星级宾馆,南山大道1039,113.920297,22.516861,广东省,深圳市,南山区,4.3,5,0755-26412222;4008866633,http://store.is.autonavi.com/showpic/47a40ca26e46124b1beec45a5b4e7f8c,http://store.is.autonavi.com/showpic/0d89efb2487edcbd8a44bfea88eb89b8,http://store.is.autonavi.com/showpic/685ad8971243fe7a0e107a03d866fa33
B02F37VPVD,格林联盟酒店(南新路店),住宿服务;宾馆酒店;经济型连锁酒店,南新路3056号(红花路与南新路交汇处),113.920166,22.538122,广东省,深圳市,南山区,4.3,3,0755-26666116;0755-26663777;0755-26087666,http://store.is.autonavi.com/showpic/1fee4930d5ded8f8127df2cad77ae6cf,http://store.is.autonavi.com/showpic/5e8142eba6b006c150952bfdf75d40ee,http://store.is.autonavi.com/showpic/f4673a6411c93b0f2bc2d0a8e5e544ec
B02F37VFFA,帝王酒店,住宿服务;宾馆酒店;三星级宾馆,坪山镇东纵路263号,114.350973,22.684425,广东省,深圳市,坪山区,3.8,3,0755-84600888,http://store.is.autonavi.com/showpic/4a1f64812bf33183176090f24a309b28,http://store.is.autonavi.com/showpic/d124d49e1270031cb22468c152918b0f,http://store.is.autonavi.com/showpic/b30df128a029ce2425c2869415abc33f
B0FFGX4QVM,维也纳酒店(深圳龙华壹城中心店),住宿服务;宾馆酒店;经济型连锁酒店,民治梅龙大道860号,114.033331,22.642146,广东省,深圳市,龙华区,4.8,3,0755-28061988,http://store.is.autonavi.com/showpic/c34de840659ed49569fa09f968c13e01,http://store.is.autonavi.com/showpic/290ae01545fe7347422a390a8280e624,http://store.is.autonavi.com/showpic/b56ede22002365bf7f11583218d7cbe0
B02F38J1FZ,良益商务酒店,住宿服务;宾馆酒店;宾馆酒店,南新路1046号良益大厦6层,113.917738,22.516928,广东省,深圳市,南山区,4.0,4,0755-86180666;0755-86531916;13590226233,http://store.is.autonavi.com/showpic/5a7e8da2077dd500a40779e4d76f388e,http://store.is.autonavi.com/showpic/82faf40a14546d08682b8c21707bbc40,http://store.is.autonavi.com/showpic/3e7244e3f5d810079f545569b7804e19
B0FFHW63J2,麗枫酒店(羊台山大浪地铁站店),住宿服务;宾馆酒店;四星级宾馆,大浪街道石观工业区茶角坎74栋3楼,113.996660,22.664017,广东省,深圳市,龙华区,4.8,3,0755-88899265;0755-88849998,http://store.is.autonavi.com/showpic/7842958273085d550e38873ce7e11fbd,http://store.is.autonavi.com/showpic/58c87203a620b654811fc5c58488cf40,http://store.is.autonavi.com/showpic/82fba1681e62d07b4a25d154887d2b94
B02F300B79,罗湖大酒店,住宿服务;宾馆酒店;四星级宾馆,南湖路3012,114.120978,22.54157,广东省,深圳市,罗湖区,4.2,3,0755-25163888;0755-25155133;0755-82257620,http://store.is.autonavi.com/showpic/da76d5864c34ac8033a11c746777d3a1,http://store.is.autonavi.com/showpic/1abc78d537f89457cb7e5f133380a1d5,http://store.is.autonavi.com/showpic/ffb9190597cb9552d0cbe87d855e131e
B02F300675,逸庭苑宾馆,住宿服务;宾馆酒店;三星级宾馆,莲花支路1005号(公交大厦附楼),114.065021,22.55937,广东省,深圳市,福田区,4.2,3,0755-61366998;0755-61366906,http://store.is.autonavi.com/showpic/6b5c7595918347574e54bd6e1a3aae73,http://store.is.autonavi.com/showpic/b72eca628186b03c0f64965fe151f15f,http://store.is.autonavi.com/showpic/8fd8692d005f1c95a1c2ab37c50631b8
B02F37WNIK,港都宾馆(迎春路),住宿服务;宾馆酒店;宾馆酒店,迎春路12号海外联谊大厦3层,114.117047,22.541770,广东省,深圳市,罗湖区,3.5,3,0755-86299333;13798546100;0755-26603965,http://store.is.autonavi.com/showpic/04e1755ae29efa3b0ef3cb6080017d86,http://store.is.autonavi.com/showpic/9af87c42786a7c0f954a1a903fb69111,http://store.is.autonavi.com/showpic/d330de70ec56bf258098a9aa1a15e38d
B02F37VJ87,金帝都酒店,住宿服务;宾馆酒店;三星级宾馆,松岗镇松岗大道与东方大道交汇处,113.859314,22.759005,广东省,深圳市,宝安区,4.0,3,0755-27097888,http://store.is.autonavi.com/showpic/fda18932363cf05136ccec4bac762db8,http://store.is.autonavi.com/showpic/1e5884ccfd3e6bd616724db16a9e3aac,http://store.is.autonavi.com/showpic/dc744ed828681fb5cc917e7836e36437
B0FFF36EFH,八号酒店(世界之窗二店),住宿服务;宾馆酒店;宾馆酒店,深南大道9039-3号白石洲农贸市场3层,113.968068,22.536234,广东省,深圳市,南山区,4.3,5,0755-86565001;0755-86565002,http://store.is.autonavi.com/showpic/0c4ee144e1cda7a9dff9b01199a0cc10,http://store.is.autonavi.com/showpic/e696da896bd70e45feec0d39eca2d191,http://store.is.autonavi.com/showpic/4d15b4f99166e4fc2d57fd660793f5a8
B02F37V2N7,莫泰168旅店(深圳罗芳东湖公园店),住宿服务;宾馆酒店;经济型连锁酒店,罗沙路5091号,114.145137,22.551611,广东省,深圳市,罗湖区,4.1,3,0755-61866622,http://store.is.autonavi.com/showpic/85e455ba92e32ef0ba9472cf30b673b2,http://store.is.autonavi.com/showpic/ed97681385e3c8d4223429697f3d5139,http://store.is.autonavi.com/showpic/70de7a42abd57aac6b71f917a48b3358
B02F306Q5O,水云间酒店公寓(成坑村店),住宿服务;宾馆酒店;三星级宾馆,大梅沙村盐梅路60号水云间3楼,114.314265,22.599000,广东省,深圳市,盐田区,4.3,5,0755-25254888;15018507409;0755-22743996,http://store.is.autonavi.com/showpic/84e37970e97ef121cc1a0477613b7be7,http://store.is.autonavi.com/showpic/ea4fa5fc528433eb89bf251a7745a9c1,http://store.is.autonavi.com/showpic/664169e950c1608f5ca452c44d4a4e07
B02F38JL56,汉庭酒店(深圳南山创业路店),住宿服务;宾馆酒店;经济型连锁酒店,南商路97号华英大厦附楼4-8层,113.92841,22.513673,广东省,深圳市,南山区,4.2,4,0755-33910188,http://store.is.autonavi.com/showpic/668748ddd0f9762fd3220773410cbbdc,http://store.is.autonavi.com/showpic/a0e7d9cda7f2cbd94c4863a64165be21,http://store.is.autonavi.com/showpic/a0776e16064a45c46985f28ea7ad3e31
B02F306R5Z,鸿隆明华轮酒店,住宿服务;宾馆酒店;四星级宾馆,蛇口太子路海上世界广场,113.916352,22.483472,广东省,深圳市,南山区,4.4,4,0755-26825555,http://store.is.autonavi.com/showpic/bca4bdaa6bbcd2906ea9f746d1150a93,http://store.is.autonavi.com/showpic/e2f388aaff43c409cdbde6c5ddb6ad02,http://store.is.autonavi.com/showpic/8c1a3270f3512606b72f537041118d71
B0FFGQUSHE,深圳中天美景华美达酒店,住宿服务;宾馆酒店;四星级宾馆,沙井街道中心路7-1号,113.826613,22.71606,广东省,深圳市,宝安区,4.3,3,0755-27288888,http://store.is.autonavi.com/showpic/78045ab032cad426cc89bac1890ca5ff,http://store.is.autonavi.com/showpic/e8677e9452faffacb56cf799c3f17631,http://store.is.autonavi.com/showpic/cc0799194130c5b1dc8f4bc012788c2c
B02F37WI6E,神舟百瑞达大酒店,住宿服务;宾馆酒店;四星级宾馆,坂雪岗大道4001号新天下工业城,114.065787,22.64595,广东省,深圳市,龙岗区,3.7,3,0755-84710888;0755-84710111,http://store.is.autonavi.com/showpic/602ef3bc7b20a51acc2727e413298b9d,http://store.is.autonavi.com/showpic/c1f336a2d6c09ec046e4ff51a802a030,http://store.is.autonavi.com/showpic/bdb1c7786332ff0cf95940bb19f95266
B02F37UARC,深圳葵花酒店公寓,住宿服务;宾馆酒店;四星级宾馆,石厦北一街104-2号,114.052186,22.527926,广东省,深圳市,福田区,4.4,3,0755-33328888,http://store.is.autonavi.com/showpic/351244fdb0bcc618accfe5b7cd075e43,http://store.is.autonavi.com/showpic/81c37d75d251f82e4b567ad33e5cf373,http://store.is.autonavi.com/showpic/e7cf66f65f064343c97510c60db3703a
B02F38JR1O,深圳湾木棉花酒店,住宿服务;宾馆酒店;五星级宾馆,滨河大道3001号,113.946994,22.518987,广东省,深圳市,南山区,4.6,3,0755-81886666,http://store.is.autonavi.com/showpic/9173bf4b06a9d1364198be53b093afe5,http://store.is.autonavi.com/showpic/f867ddac0420b7e63bfb0f43457df6d0,http://store.is.autonavi.com/showpic/e7fe9729434027dbd5c43ada5227b230
B02F306JSD,新华登宾馆(深圳万象城店),住宿服务;宾馆酒店;宾馆酒店,沿河东路13号,114.113451,22.540408,广东省,深圳市,罗湖区,3.9,4,0755-25898699,http://store.is.autonavi.com/showpic/a07c21251b2c7e53bbb5d3991926173c,http://store.is.autonavi.com/showpic/e230b766827496b0917968c917271096,http://store.is.autonavi.com/showpic/8cc8ae18b852e95e113d7f27f6e4640d
B02F38K57O,美景湾酒店,住宿服务;宾馆酒店;三星级宾馆,吉华路250-2号,114.111185,22.614891,广东省,深圳市,龙岗区,4.6,5,0755-89893388;0755-89354383;13828787332,http://store.is.autonavi.com/showpic/a86d7ec157bc50a97055b9d8d9c784aa,http://store.is.autonavi.com/showpic/544e11256efb3526a7e196575433d025,http://store.is.autonavi.com/showpic/680d67335db6703c7ea155f6e892414f
B02F37TRG9,粤海宾馆,住宿服务;旅馆招待所;旅馆招待所,龙城路85号2楼2-1  近南商路,113.929827,22.512840,广东省,深圳市,南山区,3.2,3,0755-26407984;13554830853,http://store.is.autonavi.com/showpic/3478701fd5cdf10c2543d41cee0a32ce,http://store.is.autonavi.com/showpic/0b2117548ddbc991262b6b54c4c8ebcf,http://store.is.autonavi.com/showpic/2713074895b7d7283b8188df33cef40f
B02F37VI4L,视界风尚酒店,住宿服务;宾馆酒店;四星级宾馆,深南东路5018号深圳大剧院内,114.105514,22.542714,广东省,深圳市,罗湖区,3.9,3,0755-25582888;0755-25578609;18948300687,http://store.is.autonavi.com/showpic/c35b8a43f891c76e294dad585d83e0be,http://store.is.autonavi.com/showpic/2ec5afdbdb2b81ec44a56d0109d10c31,http://store.is.autonavi.com/showpic/10ac003840e795c9afdec2fe0dff69a8
B02F37VRLX,深圳粤都商务酒店(新机场店),住宿服务;宾馆酒店;三星级宾馆,鹤洲旧村2巷1号,113.860265,22.624256,广东省,深圳市,宝安区,4.3,3,0755-29966888;0755-29980351;0755-29966391,http://store.is.autonavi.com/showpic/cc5e7edd973d5069703d96573a3d6540,http://store.is.autonavi.com/showpic/eef0655b41b8d1b6bd3ea64809ee37eb,http://store.is.autonavi.com/showpic/63cdec1838d840b32947714662942439
B02F37WQ0P,今天酒店(深圳东门分店),住宿服务;宾馆酒店;经济型连锁酒店,东门中路1020号机电大厦一楼(近茂业百货  东门天桥),114.122353,22.544731,广东省,深圳市,罗湖区,3.7,4,0755-33206733;4006770066,http://store.is.autonavi.com/showpic/f79c59f0fa9fdd78a50e80d8c3db1fcd,http://store.is.autonavi.com/showpic/403d8d6aac2bf0722e4afa718486113d,http://store.is.autonavi.com/showpic/37a4c84f3f8c10a7c9e54b35969d0465
B02F37TEYN,金中环酒店公寓,住宿服务;宾馆酒店;四星级宾馆,金田路3037号金中环商务大厦,114.062476,22.5342,广东省,深圳市,福田区,4.0,3,0755-23993333;0755-66831333,http://store.is.autonavi.com/showpic/33118476762e6e40e7f41f68bba874ad,http://store.is.autonavi.com/showpic/c76fa4b632c76399e3459359de36adb9,http://store.is.autonavi.com/showpic/6f3a4f44b06e72a1975537059ce12fd7
B02F38IYKF,深圳瑞吉酒店,住宿服务;宾馆酒店;五星级宾馆,深南东路5016号京基100大厦A座,114.106603,22.542972,广东省,深圳市,罗湖区,4.7,3,0755-83088888;15018543854,http://store.is.autonavi.com/showpic/731d6b2c9ce511f4662cb95549223faa,http://store.is.autonavi.com/showpic/abf44cc54810897d26afb7df6545c324,http://store.is.autonavi.com/showpic/6c7d44b46c8cafb462b40f3fac066b26
B0FFHFS18O,维也纳酒店(1座)(深圳华南城店),住宿服务;宾馆酒店;四星级宾馆,华南大道1号(高铁北站西广场B座),114.128288,22.677396,广东省,深圳市,龙岗区,4.5,3,0755-89633333,http://store.is.autonavi.com/showpic/7629e82c978b19554fbdb5b092df8e0b,http://store.is.autonavi.com/showpic/dc45662d36b8939fece738df2bd29d63,http://store.is.autonavi.com/showpic/6ccc1c6ed032f11a8d5b8f4495933565
B02F37VAB0,金海酒店(广深公路辅路),住宿服务;宾馆酒店;宾馆酒店,松岗镇广深公路松岗路段24号,113.847645,22.745650,广东省,深圳市,宝安区,4.1,3,0755-27683888,http://store.is.autonavi.com/showpic/d917b555221bb5735642d061ad6da898,http://store.is.autonavi.com/showpic/aed37b5dd40a1c00af7f2394b721aed9,http://store.is.autonavi.com/showpic/b7bf2f8a67ffcc09974f47b52ae040e2
B02F37WJFN,名悦商务酒店,住宿服务;宾馆酒店;宾馆酒店,振华路133号,114.088139,22.544262,广东省,深圳市,福田区,3.8,3,0755-83984588,http://store.is.autonavi.com/showpic/244e61439252c2a3c0ee0558afa40a52,http://store.is.autonavi.com/showpic/ab2fe178501d0a278236ca98c626bba2,http://store.is.autonavi.com/showpic/a5166727b26755517bd7b0c8b536a611
B02F38J3ZE,安永昌快捷酒店(万隆大厦店),住宿服务;宾馆酒店;宾馆酒店,大浪街道淘吓村261号万隆大厦5-6层,114.004313,22.650500,广东省,深圳市,龙华区,3.8,5,0755-29048899,http://store.is.autonavi.com/showpic/cb2d57b779f43085909a88d53041afa9,http://store.is.autonavi.com/showpic/f4da908e14a68f92a2771ce752eaa2aa,http://store.is.autonavi.com/showpic/bbf73ef8f4a681bd33e9f09b9eeb8f76
B0FFHXSD76,希尔顿欢朋酒店,住宿服务;宾馆酒店;四星级宾馆,田园路雪仙丽科技大厦,113.861724,22.784624,广东省,深圳市,宝安区,4.7,3,0755-27100666;18635480958,http://store.is.autonavi.com/showpic/b31105a97a4283a98e58bcc629ba146c,http://store.is.autonavi.com/showpic/a17c408f2001a4c766f61b8613f6358c,http://store.is.autonavi.com/showpic/ee8845da2bd5566594e1f686c4e81b16
B02F37WEEB,聚泉湾精品酒店,住宿服务;宾馆酒店;宾馆酒店,金安路与松白路交汇处,113.890184,22.777303,广东省,深圳市,宝安区,4.5,5,0755-27106888;0755-27107088,http://store.is.autonavi.com/showpic/671b430df040c71b20d584f1e3bef795,http://store.is.autonavi.com/showpic/76c88dde026bbde85e9a287b3fe1a538,http://store.is.autonavi.com/showpic/1e3b1b7ce3c07f4c66bc2779479c1bd7
B02F30AJKI,美逸酒店,住宿服务;宾馆酒店;宾馆酒店,益田路3008号皇都广场C座1层,114.057475,22.528156,广东省,深圳市,福田区,3.9,4,0755-88252999,http://store.is.autonavi.com/showpic/6348a9ad4d0d85857efdde5ac6beb815,http://store.is.autonavi.com/showpic/88c30edada08543d5ce1b61a8591485c,http://store.is.autonavi.com/showpic/be6df59d6f2a28a5ab19cd52b4773e4c
