id,name,type,address,lng,lat,pname,cityname,adminname,biz_ext_rating,biz_ext_cost,telephone,photourl1,photourl2,photourl3
B02F37WO6Z,四海一家(深圳店),餐饮服务;中餐厅;中餐厅,深南大道9028号益田假日广场3层L3-7,113.975883,22.537471,广东省,深圳市,南山区,3.5,180.00,0755-89829988,http://store.is.autonavi.com/showpic/9c79e8f2744cc9f88fdc3d30dc99bdd7,http://store.is.autonavi.com/showpic/5bc8bcef6f793863a201b15fa274b424,http://store.is.autonavi.com/showpic/e533a712cc68a8c13c89d8ae35a3745e
B02F37VKQF,一品小肥羊(龙岗岁宝店),餐饮服务;中餐厅;火锅店,龙翔大道6051号新亚洲花园新德广场岁宝百货1层,114.237280,22.710625,广东省,深圳市,龙岗区,4.6,40.00,0755-28984839,http://store.is.autonavi.com/showpic/0c331c15cc7f7f8422f26c7192a804eb,http://store.is.autonavi.com/showpic/a25240849c6a135b66200ccf9bf987d9,http://store.is.autonavi.com/showpic/1c0ad5b26d8ba0679e8e85f436035bbf
B02F37U1FG,王品牛排(深圳深南店),餐饮服务;外国餐厅;牛扒店(扒房),深南中路1007号红岭大厦1栋1层(红岭南路口),114.103711,22.540553,广东省,深圳市,福田区,4.5,311.00,0755-25866333;0755-25866999,http://store.is.autonavi.com/showpic/9a110e8a578bcabbd850b8c28e537ba0,http://store.is.autonavi.com/showpic/4e5b99612e18a3c433a3d83e69efc740,http://store.is.autonavi.com/showpic/713a320408b25ffc3fa4a4ec6b73bc19
B02F37W057,永和快餐大王(布吉分店),餐饮服务;中餐厅;中餐厅,布吉镇布吉镇新乐路42号,114.118198,22.607029,广东省,深圳市,龙岗区,4.6,21.00,0755-84179619;0755-84277939;18320796569,http://store.is.autonavi.com/showpic/757d6115d2f2165ddf401128a6e80723,http://store.is.autonavi.com/showpic/8359aacfcc368200204df54310b9ac43,http://store.is.autonavi.com/showpic/aa83acf1dbe949391778a73bb6d19fab
B02F37T1OW,缪氏川菜(梅林店),餐饮服务;中餐厅;四川菜(川菜),梅华路207号安通大厦,114.045399,22.563454,广东省,深圳市,福田区,4.5,60.00,0755-83113381;0755-83126969,http://store.is.autonavi.com/showpic/1916088c08ab9d8007fb118c2a77013f,http://store.is.autonavi.com/showpic/1fbc22ccb42fd710a5752c862286207f,http://store.is.autonavi.com/showpic/3490b8eb305b2936388bd0cd3393c825
B02F37U7VY,缪氏川菜(南山店),餐饮服务;中餐厅;四川菜(川菜),南山大道2068号南侨花园1层,113.925069,22.530186,广东省,深圳市,南山区,4.0,62.00,0755-26664819;0755-86240218,http://store.is.autonavi.com/showpic/1916088c08ab9d8007fb118c2a77013f,http://store.is.autonavi.com/showpic/59d1d21cf5911dee303411dedf908f9c,http://store.is.autonavi.com/showpic/f7fd88b0ec13f8cf1cc4e0f670b43130
B02F37V73S,永和快餐大王(太安店),餐饮服务;快餐厅;快餐厅,太安路46号(近东晓路),114.137072,22.572006,广东省,深圳市,罗湖区,3.5,32.00,0755-25008248;0755-25003626,http://store.is.autonavi.com/showpic/f96ca19682c2e74465bfaadb57eab9c2,http://store.is.autonavi.com/showpic/7ac0fb19043f5851d99fe6ea5fa723a1,http://store.is.autonavi.com/showpic/1a8ed55badd7c1cd5337d9885beb4fea
B02F37UHEZ,雨花西餐厅(龙城店),餐饮服务;外国餐厅;西餐厅(综合风味),松仔岭二路110号,114.245122,22.727246,广东省,深圳市,龙岗区,3.5,100.00,0755-28960001,http://store.is.autonavi.com/showpic/7325439713c1f1c0c8282e2c91d1e32a,http://store.is.autonavi.com/showpic/ba80670c10bdb4d1596884350f89c075,http://store.is.autonavi.com/showpic/52c6d901e2739ec938966be3ff42e721
B02F37WKYQ,北海渔村(振兴店),餐饮服务;中餐厅;海鲜酒楼,华强北振兴西路154号,114.083539,22.546826,广东省,深圳市,福田区,4.0,93.00,0755-83269288;0755-83266668,http://store.is.autonavi.com/showpic/942a4566e3c3746cc39a50c22590e513,http://store.is.autonavi.com/showpic/566e25d6d5238de16cdda6008a334c6d,http://store.is.autonavi.com/showpic/8961ae9cdba63d68387e07c65824812c
B02F37VZZS,千味涮(购物公园店),餐饮服务;中餐厅;火锅店,福华三路268号星河·Coco Park3层,114.054448,22.533230,广东省,深圳市,福田区,4.0,86.00,0755-25313875,http://store.is.autonavi.com/showpic/415a3d373a0667f6a1a14b4ce8c29f07,http://store.is.autonavi.com/showpic/40263df6d985a070be8fa628e56631f8,http://store.is.autonavi.com/showpic/b1a3803bec137034503e35f76487491e
B02F37W08F,新宝城海鲜坊(龙华店),餐饮服务;中餐厅;海鲜酒楼,和平东路132号新宝城大酒店1-2层,114.034807,22.661389,广东省,深圳市,龙华区,3.5,74.00,0755-29823666;0755-29823222,http://store.is.autonavi.com/showpic/1c6fa0b577a8e1dce926b2b494cad938,http://store.is.autonavi.com/showpic/c1a3c44ee1fb3a0a9e09cabc3c92dd59,http://store.is.autonavi.com/showpic/e7f54db406d479fd79f44d599fe29d0d
B02F37SUCD,一品肥羊药膳养生火锅(宝安店),餐饮服务;中餐厅;火锅店,前进一路黄金台综合大楼2楼,113.894440,22.578125,广东省,深圳市,宝安区,-1,-1,0755-27853866,http://store.is.autonavi.com/showpic/d1eb26d1669cf4f9005a9ba5bf6b4a64,http://store.is.autonavi.com/showpic/2fdb83c50e15796a947b05d73d922b8a,http://store.is.autonavi.com/showpic/921c3c103d4ec51abc9f880899c70150
B02F37V5GU,鑫泰(海岸城购物中心西区),餐饮服务;外国餐厅;泰国/越南菜品餐厅,文心五路33号海岸城购物中心西区L5层517,113.935483,22.517577,广东省,深圳市,南山区,4.0,90.00,0755-86359929;0755-86359989,http://store.is.autonavi.com/showpic/335aaf01db54a9f9f91eb770174aca25,http://store.is.autonavi.com/showpic/b3f6f035e05995f2295a69c7184bd861,http://store.is.autonavi.com/showpic/922e416e2fdfa80e7733324955f93ea3
B02F309PKU,必胜宅急送(景田店),餐饮服务;快餐厅;必胜客,红荔西路7002-1号,114.048490,22.548306,广东省,深圳市,福田区,3.5,53.00,0755-25312572;0755-82969294;4008123123,http://store.is.autonavi.com/showpic/c65429d8206e8d90bd3a51e9728c4d56,http://store.is.autonavi.com/showpic/ec986f089b37e555f02ac41b3cd623a7,http://store.is.autonavi.com/showpic/60b680427bfa45f8bb617a9628735ac8
B02F37VMIG,重庆秦妈火锅(龙岗南联店),餐饮服务;中餐厅;火锅店,龙河路34-1号,114.255524,22.720782,广东省,深圳市,龙岗区,3.5,84.00,0755-33561173;13798384139,http://store.is.autonavi.com/showpic/a45a9438236c028d13ec52b246755358,http://store.is.autonavi.com/showpic/c038a66cdda51dcb2eb19961218deb83,http://store.is.autonavi.com/showpic/1d1bb2021c1c4ad05aba82bc1fb06c7c
B02F37VUPY,湘粉人家(宝安北路分店),餐饮服务;中餐厅;湖南菜(湘菜),宝安北路2051号深圳国际商品交易大厦1层,114.108853,22.561834,广东省,深圳市,罗湖区,3.0,20.00,0755-82266461;0755-82669953,http://store.is.autonavi.com/showpic/d99022f65f03f061250513d122fb4a78,http://store.is.autonavi.com/showpic/b422e0efcc2804bdea1c026835d82620,http://store.is.autonavi.com/showpic/815e68ac17819e4dd794e505da9a458d
B02F37VRRM,天星西餐厅(华强北中航城店),餐饮服务;外国餐厅;西餐厅(综合风味),深南中路3024号中航城格兰云天大酒店2层,114.082784,22.540874,广东省,深圳市,福田区,-1,-1,0755-33969898,http://store.is.autonavi.com/showpic/233ab8728326d4618770016ea201ff3d,http://store.is.autonavi.com/showpic/559a3a49a310b38d66d30d64,http://store.is.autonavi.com/showpic/559a3a49a310b38d66d30d68
B02F37SR3P,新宝城海鲜坊(龙岗世贸店),餐饮服务;中餐厅;海鲜酒楼,中心城龙翔大道世贸中心E区3层,114.245155,22.716561,广东省,深圳市,龙岗区,3.5,106.00,0755-28901222,http://store.is.autonavi.com/showpic/9f11b40bade01ad41149a5136034bfcb,http://store.is.autonavi.com/showpic/d66fa81c07d5dfaf840c335eeae321af,http://store.is.autonavi.com/showpic/ba54eeea8cc027ac02b9a8043fd522a1
B02F306QPL,大渔铁板烧(福民店),餐饮服务;中餐厅;特色/地方风味餐厅,福民路9-1号皇岗商业城2层,114.065600,22.522760,广东省,深圳市,福田区,3.5,194.00,0755-88307658;0755-88307659,http://store.is.autonavi.com/showpic/7e90c412bab9de5c5b97ce632f895fe3,http://store.is.autonavi.com/showpic/a92c2ad228b1ac2da22e553bf4ea6cf8,http://store.is.autonavi.com/showpic/aeaf9b1dc65f37e907c30bc6f54697ae
B02F38LF1Z,缪氏川菜(宝体店),餐饮服务;中餐厅;四川菜(川菜),玉律路(近宝安体育馆),113.883056,22.565517,广东省,深圳市,宝安区,4.0,56.00,0755-23228099;0755-23228066,http://store.is.autonavi.com/showpic/91d3cad3b8f9c70918050b88667cbe8a,http://store.is.autonavi.com/showpic/c1fe45b23267532869b14af9b6f2ea5e,http://store.is.autonavi.com/showpic/0858554485e23afb3f8eb495b0f14e4f
B02F37UTZ0,缪氏川菜(东园店),餐饮服务;中餐厅;四川菜(川菜),东园路滨河西商住楼53栋一层群楼东侧350平方米商铺,114.100029,22.537381,广东省,深圳市,福田区,4.5,58.00,0755-82270928;0755-82271878,http://store.is.autonavi.com/showpic/8acb25f80c855156001916fd5a6be99e,http://store.is.autonavi.com/showpic/0861bb4c88edd604f6bacff6201ce0e7,http://store.is.autonavi.com/showpic/b52beb9a24b985a378de29224b002d97
B02F306RAT,深圳市雨花餐饮有限公司,餐饮服务;外国餐厅;西餐厅(综合风味),人民南路3001-1号,114.118432,22.540589,广东省,深圳市,罗湖区,4.0,113.00,0755-82272702;0755-83264594,http://store.is.autonavi.com/showpic/da32d10a1a11ec34a80f86a69a82910e,http://store.is.autonavi.com/showpic/1aa0f9ceddf97bea30def64ff5ac30ef,http://store.is.autonavi.com/showpic/249fe4485e1f5ab7f567de1ef356616b
B02F37UJKC,雨花西餐厅(蛇口海上世界店),餐饮服务;外国餐厅;西餐厅(综合风味),新华路海上世界中心广场2层,113.916178,22.483904,广东省,深圳市,南山区,3.5,110.00,0755-26693060;0755-26691002,http://store.is.autonavi.com/showpic/e7e05d84b7efed69cd4810063c0a8e15,http://store.is.autonavi.com/showpic/4affe3786f3c0ecd016eebf47af20d35,http://store.is.autonavi.com/showpic/db9d26c14bb6cee6d48ac45dcbc9f4ae
B02F38J6VW,西湖春天(深国投广场),餐饮服务;中餐厅;浙江菜,农林路69号深国投广场2层0201号,114.011428,22.544778,广东省,深圳市,福田区,4.6,21.00,0755-89830088,http://store.is.autonavi.com/showpic/d3c15ec39ace39b801a267f2acc6f214,http://store.is.autonavi.com/showpic/92fef283ef3ee8befdd04919c9c03d58,http://store.is.autonavi.com/showpic/49876db1ec33a5dc5f95c201efad6a0a
B02F38I85M,大渔铁板烧(蛇口店),餐饮服务;中餐厅;特色/地方风味餐厅,蛇口兴华路海滨花园商业中心1层,113.915827,22.484069,广东省,深圳市,南山区,3.5,190.00,0755-26695782;0755-26695789,http://store.is.autonavi.com/showpic/d153048e6d06ab66f1b1406de9b966e6,http://store.is.autonavi.com/showpic/b0ba4631f5ae8971097d9557e323c252,http://store.is.autonavi.com/showpic/381b16105f8726fed2dc4845a06f6900
B02F37VSTC,大渔铁板烧(中心城店),餐饮服务;外国餐厅;日本料理,福华一路3号怡景中心城1层,114.059094,22.536042,广东省,深圳市,福田区,3.5,193.00,0755-82801802;0755-82801803,http://store.is.autonavi.com/showpic/6fae2fe350e76edce31922a95f909043,http://store.is.autonavi.com/showpic/a9bf5caa281ba8b0252b75a2edd37825,http://store.is.autonavi.com/showpic/3831a6d667acac078a0ecc61c42e35f7
B02F37W6L0,火胖子肥肠煲(南山店),餐饮服务;中餐厅;中餐厅,南山大道2040号2层(南山赛格电子旁),113.924828,22.529286,广东省,深圳市,南山区,4.6,60.00,0755-26668080;13530951846;13924622894,http://store.is.autonavi.com/showpic/ff9c6fb3af231f42bb1b926c24c5334d,http://store.is.autonavi.com/showpic/1729ee2859c9ee0369106b1d3df7d441,http://store.is.autonavi.com/showpic/a94242372fb70c8196bc04f90482bc8f
B02F37VIWZ,兄弟川菜馆(蚝业路),餐饮服务;中餐厅;四川菜(川菜),蚝业路3-2号,113.798237,22.679339,广东省,深圳市,宝安区,4.5,78.00,0755-27347393,http://store.is.autonavi.com/showpic/aa54446ef0e8830822b52b711a9e2828,http://store.is.autonavi.com/showpic/3ecb0fc96c4dd6d19311e1d21c271f33,http://store.is.autonavi.com/showpic/35ea1ae7d8c1cfcccec7f0d3415237e9
B02F37UGXN,嘉旺(宝华分店),餐饮服务;快餐厅;快餐厅,龙华街道荔园新村宝华路175号1层,114.019956,22.654351,广东省,深圳市,龙华区,3.5,24.00,0755-27743938;0755-28171568;0755-27743868,http://store.is.autonavi.com/showpic/80fe6effb9d6a8df18adb5a52812310f,http://store.is.autonavi.com/showpic/122aea9047cd424cb7832acbee5fd979,http://store.is.autonavi.com/showpic/59cdece98edfa08e5a823d8d51061dfb
B02F38JKFR,中国兰州拉面(太白店),餐饮服务;中餐厅;清真菜馆,太白路3105,114.128347,22.576507,广东省,深圳市,罗湖区,3.5,13.00,0755-25818370,http://store.is.autonavi.com/showpic/ae24b2db7fe925dca7426b24e6f5adbe,http://store.is.autonavi.com/showpic/638e54e87d75da153a6301e2cb78d52f,http://store.is.autonavi.com/showpic/afd3f455717054549472498690e449b1
B02F37WMUM,春满园(时代科技大厦店),餐饮服务;中餐厅;中餐厅,深南大道7028号中南海怡酒店,114.023875,22.537250,广东省,深圳市,福田区,3.5,74.00,0755-82763666;0755-82562828,http://store.is.autonavi.com/showpic/13dff195bc14bda65cf70c960bc93168,http://store.is.autonavi.com/showpic/b0f3fa0b1c15a08bdce50eb7ed653943,http://store.is.autonavi.com/showpic/2338c0bbe1bb122f2ea2e01d8e1c6bad
B02F37WO70,王品牛排(益田假日广场店),餐饮服务;外国餐厅;牛扒店(扒房),深南大道9028号益田假日广场F3层L3-1,113.975520,22.537300,广东省,深圳市,南山区,4.9,344.00,0755-86298729;0755-86298000;0755-86298730,http://store.is.autonavi.com/showpic/5916aa5ca45e876168c0ec83501cb8b4,http://store.is.autonavi.com/showpic/fb75e785749170516de2ac2b77f432c3,http://store.is.autonavi.com/showpic/dd977e51ca0a4e98a87a264574c92651
B02F37VTM8,福鑫记(八卦岭店),餐饮服务;中餐厅;火锅店,八卦一路11栋1号(距红岭站约860米),114.103828,22.557465,广东省,深圳市,福田区,3.5,78.00,0755-25023163;0755-25023169,http://store.is.autonavi.com/showpic/02cc20c07372d19e757ea309d1cd7d65,http://store.is.autonavi.com/showpic/6b0b82240c787a6d6578de8fd5468a3b,http://store.is.autonavi.com/showpic/d83c8b03cbc1fe0a2385f9772a05927f
B02F38JBNB,渔乡米坊(深国投广场),餐饮服务;中餐厅;中餐厅,农林路69号深国投广场嘉信茂购物中心B1层,114.011255,22.544659,广东省,深圳市,福田区,3.5,31.00,0755-82700300,http://store.is.autonavi.com/showpic/7aee77d17136d23224f452a164fd76d5,http://store.is.autonavi.com/showpic/bf88ff051cb871095def5d4d5eec24d4,http://store.is.autonavi.com/showpic/02a2056477e958ddfbbdd70223afee89
B02F37W4W8,火胖子肥肠煲(南山村分店),餐饮服务;中餐厅;四川菜(川菜),南新路1005-2号,113.913387,22.513000,广东省,深圳市,南山区,3.5,69.00,0755-86285363,http://store.is.autonavi.com/showpic/68640feb846d2fed6a933d984f5a9da8,http://store.is.autonavi.com/showpic/3fcf1c567ae6aaad8ede7654edff3292,http://store.is.autonavi.com/showpic/04d74c070714122e8f91639fdcb03735
B02F37VSQZ,千味涮(茂业店),餐饮服务;中餐厅;火锅店,东门中路东门中心广场茂业百货商厦B1层B10(近东门步行街),114.121369,22.546955,广东省,深圳市,罗湖区,4.0,92.00,0755-86076143,http://store.is.autonavi.com/showpic/2d36ae0ebb4f20cf65beb3801e020729,http://store.is.autonavi.com/showpic/7fdace3608fc0ad759b486312b774e13,http://store.is.autonavi.com/showpic/e207153d95d85eafe197687042fbf500
B02F37WOSF,缪氏川菜(蛇口店),餐饮服务;中餐厅;四川菜(川菜),蛇口公园南路46号(招商路与公园路口十字交叉口),113.925127,22.489755,广东省,深圳市,南山区,4.5,61.00,0755-26889820;0755-26889819,http://store.is.autonavi.com/showpic/17a62271877470f70a27d78eb89f3793,http://store.is.autonavi.com/showpic/2aa94d4cca07d845b36d894156c73a60,http://store.is.autonavi.com/showpic/4c8f61cacdd94102805b7845f3015c38
B02F37UKRK,龙记桂林米粉店(岗厦店),餐饮服务;中餐厅;中餐厅,彩田路3002-5号,114.068394,22.535579,广东省,深圳市,福田区,3.5,14.00,0755-82913051,http://store.is.autonavi.com/showpic/9f194c4eba505cee28c402f80a8432b7,http://store.is.autonavi.com/showpic/55acc312a310a084c90f6702,http://store.is.autonavi.com/showpic/056dbb1175d92a860106bd6f493a9fd5
B02F306E77,旺角酒楼(布吉路店),餐饮服务;中餐厅;综合酒楼,布吉路102号,114.117327,22.600414,广东省,深圳市,龙岗区,3.0,54.00,0755-28871409;0755-28872886,http://store.is.autonavi.com/showpic/d3f67ba6a7848f20c9cfb35a7b123225,http://store.is.autonavi.com/showpic/b610eb8c1f36ce00e03a5a427e5d07b1,http://store.is.autonavi.com/showpic/9caa5a1af96e8e7363c07668505ec982
B02F37WQ6T,沙县小吃(景田路),餐饮服务;快餐厅;快餐厅,景田路13-6号,114.044756,22.545460,广东省,深圳市,福田区,3.0,12.00,13392832397;15889460846,http://store.is.autonavi.com/showpic/5dcd6bf0cfd28c703fbf0aa9a82fc439,http://store.is.autonavi.com/showpic/e062fb8f430060f781372a44fecd9df4,http://store.is.autonavi.com/showpic/4392de448913069683e6147fe5532f44
B02F37VPXJ,雨花西餐厅(布吉店),餐饮服务;外国餐厅;西餐厅(综合风味),中兴路13-2号,114.124322,22.607846,广东省,深圳市,龙岗区,3.5,79.00,0755-28558888,http://store.is.autonavi.com/showpic/6b8454608acd7ce845733027129d094a,http://store.is.autonavi.com/showpic/fcc580caca9aa86611db262519a3840e,http://store.is.autonavi.com/showpic/381b1209b1faaee0c8a8b871420b15c9
B02F37WNQ2,胜记(中心店),餐饮服务;中餐厅;广东菜(粤菜),深南大道4019号航天大厦B座2层,114.051003,22.538501,广东省,深圳市,福田区,4.0,164.00,0755-88266255;0755-88266277,http://store.is.autonavi.com/showpic/bef78f2e1565d5299469290bb03dd991,http://store.is.autonavi.com/showpic/7c665558f066d29246485b280eb62382,http://store.is.autonavi.com/showpic/17c61a27f14f0a0769f2ebfe6a4c042b
B02F37W7NZ,真功夫(深圳火车站),餐饮服务;快餐厅;快餐厅,建设路1号火车站大楼A区夹层,114.117763,22.531566,广东省,深圳市,罗湖区,3.0,21.00,0755-82328806;0755-82333565,http://store.is.autonavi.com/showpic/26b14cd9bd0afdad6853cbc2549b0bdd,http://store.is.autonavi.com/showpic/1c64c5994189c11b3870a0dc394ca271,http://store.is.autonavi.com/showpic/b45ddd9fd67ae35365824463ccec646b
B02F37V5HL,缪氏川菜(泰然店),餐饮服务;中餐厅;四川菜(川菜),泰然四路210栋103号,114.026413,22.533377,广东省,深圳市,福田区,4.0,59.00,0755-61355098;0755-61351188,http://store.is.autonavi.com/showpic/45ddd9d2e6bb213bffcf3c6a592e3016,http://store.is.autonavi.com/showpic/208af2d46d2ac6e0eb04d2f3107c2349,http://store.is.autonavi.com/showpic/d243ffe4b3c96f53fa959f56a2e8210f
B02F37W794,缪氏川菜(湖贝店),餐饮服务;中餐厅;四川菜(川菜),湖贝路1007号,114.130158,22.546399,广东省,深圳市,罗湖区,4.0,62.00,0755-88877993;0755-88877883;0755-82173537,http://store.is.autonavi.com/showpic/0e53b5fddb8b767b6417ee4a9b0af225,http://store.is.autonavi.com/showpic/f1aad43d6544d7ecee9de1a0ab26e96a,http://store.is.autonavi.com/showpic/84bb5923ccdacff1376f73a3b99b179b
B02F37UK8C,木屋烧烤(香蜜湖店),餐饮服务;中餐厅;特色/地方风味餐厅,深南大道6068号木屋烧烤(香蜜湖古堡分店),114.034410,22.542915,广东省,深圳市,福田区,4.0,69.00,0755-83051942,http://store.is.autonavi.com/showpic/1ba06ccd85dca172d7f6ba980d92243d,http://store.is.autonavi.com/showpic/5ea4223a11aa6dc4f1d21b166c14e71a,http://store.is.autonavi.com/showpic/590acfc3e7d8bb6493b08e5b83701856
B02F37UF9D,火胖子肥肠煲(南新店),餐饮服务;中餐厅;中餐厅,南新路2056号(南新酒店1层),113.918938,22.530091,广东省,深圳市,南山区,3.5,60.00,0755-26520358;13530951846,http://store.is.autonavi.com/showpic/a47885266afcc252e8afe924b18c3f82,http://store.is.autonavi.com/showpic/5617a46aa310c5a615b6b6ce,http://store.is.autonavi.com/showpic/acd228b5a25093a53d4107abec4df6cc
B02F37WNTR,潮江春(大中华分店),餐饮服务;中餐厅;潮州菜,福华一路1号大中华深圳喜来登酒店5层,114.062043,22.535660,广东省,深圳市,福田区,4.0,169.00,0755-23998333;0755-23998388,http://store.is.autonavi.com/showpic/ec6ffa629afb1273bd3d60c69287563d,http://store.is.autonavi.com/showpic/d2f9ddd43cd31358414157a666cb51a7,http://store.is.autonavi.com/showpic/18fd9f4dd256f1f3fd1b12c9536844ea
B02F37WIZ7,木屋烧烤(梅林店),餐饮服务;中餐厅;特色/地方风味餐厅,梅林路133号,114.047660,22.567467,广东省,深圳市,福田区,4.0,63.00,0755-83100461,http://store.is.autonavi.com/showpic/2432e5dd059646ba092be22926dbe039,http://store.is.autonavi.com/showpic/99c3b9cb87279b559859f0b52937ff2f,http://store.is.autonavi.com/showpic/d10c501568497aa30bf0b1881e376204
B02F37VKMO,木屋烧烤(龙华店),餐饮服务;中餐厅;特色/地方风味餐厅,东环一路赛龙豪轩B幢1层,114.027901,22.656034,广东省,深圳市,龙华区,4.7,65.00,0755-27705066,http://store.is.autonavi.com/showpic/3320842d949a69b9babd6016727faa57,http://store.is.autonavi.com/showpic/590acfc3e7d8bb6493b08e5b83701856,http://store.is.autonavi.com/showpic/c562adcce32c46d72413ea526c89fdea
B02F306HKR,西湖春天(开元店),餐饮服务;中餐厅;中餐厅,北环大道7001号开元大厦2-3层,114.037899,22.558597,广东省,深圳市,福田区,4.0,110.00,0755-88822868;0755-83546684,http://store.is.autonavi.com/showpic/f1678ef8fea14cc0b8ecdd2bd1057757,http://store.is.autonavi.com/showpic/8159ac7b59a6fa4d09f49c22df0463c3,http://store.is.autonavi.com/showpic/49876db1ec33a5dc5f95c201efad6a0a
B02F37UDLB,必胜宅急送(华侨城店),餐饮服务;快餐厅;必胜客,华侨生态广场A108,113.983443,22.537795,广东省,深圳市,南山区,3.5,42.00,0755-26601419;0755-26518171;4008123123,http://store.is.autonavi.com/showpic/ffafbb930d9f99eaccce859601c605d2,http://store.is.autonavi.com/showpic/27ab6916f2b53bc54f2a25617b528bdd,http://store.is.autonavi.com/showpic/57b37c584d049020a88b00ba9ad9e505
B02F37U6ZQ,大渔铁板烧(佳宁娜店),餐饮服务;中餐厅;特色/地方风味餐厅,人民南路2002佳宁娜时尚购物广场1层,114.119591,22.536912,广东省,深圳市,罗湖区,4.0,200.00,0755-61317955,http://store.is.autonavi.com/showpic/1e64a3857f954e07b3dcc241c12ada07,http://store.is.autonavi.com/showpic/077d4a71801e871999fd41f3714ce54f,http://store.is.autonavi.com/showpic/791e880ee8c5d010505e4ca49983ae90
B02F37SCCI,肯德基(观澜店),餐饮服务;快餐厅;肯德基,观澜大道吉盛酒店民乐福购物广场1层,114.055458,22.715967,广东省,深圳市,龙华区,3.5,39.00,0755-28081661;0755-28081727,http://store.is.autonavi.com/showpic/3d178453714cb6feffa1f5ec00328719,http://store.is.autonavi.com/showpic/75ea4b4bd1fb8d40959081153b8f6ff8,http://store.is.autonavi.com/showpic/4cd2af3a1a149189d50488c793b891d9
B02F37UE8O,汉阳馆(保利店),餐饮服务;外国餐厅;韩国料理,后海滨路深圳保利文化广场A区3层07号,113.939054,22.517174,广东省,深圳市,南山区,4.0,141.00,0755-88850289;0755-86287386,http://store.is.autonavi.com/showpic/327b73c22d4a0039eab6ecc948384611,http://store.is.autonavi.com/showpic/d95cc0aa8d1bca46ace6cd07b97d6331,http://store.is.autonavi.com/showpic/c7872287c15a8ba6fa94a6d66d072df0
B02F37WNRQ,萨莉亚意式餐厅(东门文化娱乐中心店),餐饮服务;外国餐厅;意式菜品餐厅,人民北路2069和兴商城2层,114.119493,22.547132,广东省,深圳市,罗湖区,3.5,42.00,0755-88219725;0755-82197256,http://store.is.autonavi.com/showpic/7244051fb242c6c17af7e24d1345423e,http://store.is.autonavi.com/showpic/87281403c952ad01ce0b9c908e2c89ec,http://store.is.autonavi.com/showpic/2feaf3cbcfd56fc8004684092545ba7e
B02F37UAOY,兰州牛肉拉面(八卦一路店),餐饮服务;中餐厅;清真菜馆,八卦一路195号,114.094230,22.561473,广东省,深圳市,福田区,4.5,61.00,0755-26889820;0755-26889819,http://store.is.autonavi.com/showpic/554b2bf8bcded6a13cdfc1c6af404440,http://store.is.autonavi.com/showpic/5d796c1b2a8ebf2e77bb4975e8379172,http://store.is.autonavi.com/showpic/4c8f61cacdd94102805b7845f3015c38
B02F37U663,兰州牛肉拉面(下围工业区一路),餐饮服务;中餐厅;清真菜馆,永丰路(高新科技园社区健康服务中心西北),114.073682,22.691426,广东省,深圳市,龙华区,3.0,13.00,0755-82913051,http://store.is.autonavi.com/showpic/a3c548ef15b6c3354ef5140bdafa36a5,http://store.is.autonavi.com/showpic/097511290aedced75987fd5cf694e4b2,http://store.is.autonavi.com/showpic/2e9d361baf2ef2bff8314ebfe2ea6e17
B02F37W7I8,鲜粉人家(水库新村店),餐饮服务;中餐厅;中餐厅,水库新村183栋1楼,114.138020,22.564775,广东省,深圳市,罗湖区,3.5,18.00,0755-25990837;0755-25590897,http://store.is.autonavi.com/showpic/002e36c16c838b51ff8e6ae1b39e1316,http://store.is.autonavi.com/showpic/55922244a310e499fdb54a36,http://store.is.autonavi.com/showpic/cb3a1ea16b5b8770c2954706e0e4a971
B02F38K2WT,壹日叁餐(京基百纳空间),餐饮服务;中餐厅;广东菜(粤菜),深南东路5016号京基百纳空间B1层B118,114.106762,22.542664,广东省,深圳市,罗湖区,1.1,30.00,0755-22920263;0755-22218388;0755-22218318,http://store.is.autonavi.com/showpic/9095e2d70252edac288d86665d183314,http://store.is.autonavi.com/showpic/12a01389bbbc0200d5f9bae58fbc3c81,http://store.is.autonavi.com/showpic/e12f696fe1005fc3eca52013ff0fb260
B02F37VWEO,一品红川菜(八卦岭店),餐饮服务;中餐厅;四川菜(川菜),八卦一路18-5号,114.100595,22.557348,广东省,深圳市,福田区,3.5,75.00,0755-82418096;0755-82418682,http://store.is.autonavi.com/showpic/5b1d3b84b60d2af3bb50fd0cc7e1efbc,http://store.is.autonavi.com/showpic/8544568cc3ac7400565c6db37aafa02e,http://store.is.autonavi.com/showpic/369e62af174889dedaa1ea1221360a8d
B02F37WN74,萨莉亚意式餐厅(中威广场店),餐饮服务;外国餐厅;意式菜品餐厅,人民北路1008号中威广场地下城C号(近太阳广场),114.119201,22.544952,广东省,深圳市,罗湖区,3.5,34.00,0755-82205461,http://store.is.autonavi.com/showpic/e0066866a0c53ed1af8134cfcda3983c,http://store.is.autonavi.com/showpic/1a85f81beb4cd7df0f53394e58ac64fd,http://store.is.autonavi.com/showpic/141d44bcc658542852c2ce7c1b3b6c38
B02F38JBB8,福满园大酒楼(石岩店),餐饮服务;中餐厅;中餐厅,石岩街道宝石南路宏发大世界购物广场5-6层,113.929474,22.674110,广东省,深圳市,宝安区,3.5,76.00,0755-27606222;0755-27606333,http://store.is.autonavi.com/showpic/02d6eba4e59073fd22cf9e34f0891643,http://store.is.autonavi.com/showpic/5db79ee7a46109605213a82041a4376d,http://store.is.autonavi.com/showpic/02c54d6943aa1894c56c4fd01e1ee640
B02F37TLRC,百度烤肉(深圳八卦路店),餐饮服务;中餐厅;特色/地方风味餐厅,八卦一路10栋1层5号,114.102593,22.557438,广东省,深圳市,福田区,4.1,59.00,0755-82429600,http://store.is.autonavi.com/showpic/ad39bdabc79fecd78c51b31116bdfb8e,http://store.is.autonavi.com/showpic/692a40fcf16d879adb9038b570ab9b8d,http://store.is.autonavi.com/showpic/1e8423d2f3be48e1250ee1f075286e68
B02F37TD3O,红荔村肠粉(贝丽店19店),餐饮服务;快餐厅;快餐厅,贝丽南路59号合正星园一层A-13、A-15号,114.126612,22.565364,广东省,深圳市,罗湖区,3.5,30.00,0755-25015177;0755-25015500;13538270926,http://store.is.autonavi.com/showpic/cd260ab5f86265a867c862cf749830d3,http://store.is.autonavi.com/showpic/f0d975f33cdbbb471e5c54439eaa4efa,http://store.is.autonavi.com/showpic/a44ab4b0358f788360057fc42e88637c
B02F37VUBU,绿茵阁(新都自助餐店),餐饮服务;外国餐厅;西餐厅(综合风味),春风路4001号新都酒店B1层,114.117412,22.535898,广东省,深圳市,罗湖区,3.5,118.00,0755-83051942,http://store.is.autonavi.com/showpic/fbfc363bd5315909803bc34b08f120c2,http://store.is.autonavi.com/showpic/72f8cd1ef2177fd950320018bfe898c5,http://store.is.autonavi.com/showpic/22650159c845af0b0b6e376c9855661c
B02F37UJ9X,二郎田鸡(南油店),餐饮服务;中餐厅;中餐厅,南商路68-2号,113.928652,22.510870,广东省,深圳市,南山区,3.3,48.00,0755-26648128;0755-86715726,http://store.is.autonavi.com/showpic/2ff06cc22eeabd2ad906a9d9972cd5bd,http://store.is.autonavi.com/showpic/2a74dc4484b1d0410899736cbf42ae50,http://store.is.autonavi.com/showpic/377a6a937f6854cc514870f3b2cd8d5a
B02F37W85X,圣多斯巴西烤肉(京基百纳广场南山店),餐饮服务;外国餐厅;巴西菜,白石路168号京基百纳广场(南山店)B1层B1-03A,113.969762,22.530510,广东省,深圳市,南山区,4.0,75.00,0755-86286293;0755-86286950,http://store.is.autonavi.com/showpic/8a5ef2777939f670d7c597d71730a083,http://store.is.autonavi.com/showpic/bc8c4d04cdb116c8893613fa7bf9054b,http://store.is.autonavi.com/showpic/ba6ab664038b1ed216b52af0f30e794a
B02F37UGTS,春满园(御景华城店),餐饮服务;中餐厅;中餐厅,滨河大道3001-6号京基御景华城商业广场2层201号,114.085518,22.533256,广东省,深圳市,福田区,3.5,123.00,0755-83369222,http://store.is.autonavi.com/showpic/191000e3f61dc9670c5e5e4706d3081e,http://store.is.autonavi.com/showpic/79bce4b063e9fb04e48283a6eb3d5133,http://store.is.autonavi.com/showpic/b80e617c00d4dbab82192098525a96e6
B02F37UGMJ,尊宝比萨(福强店),餐饮服务;快餐厅;快餐厅,水围七街4号水围村45幢,114.062959,22.518291,广东省,深圳市,福田区,4.8,45.00,0755-83828525;0755-83828626,http://store.is.autonavi.com/showpic/fe0086bf746a3768f4ef343502d06785,http://store.is.autonavi.com/showpic/6f46dd4db9069a76867fad3f3d9c24fd,http://store.is.autonavi.com/showpic/ed04d888a6862364e7158842ec2ef2b5
B02F37VW7E,肯德基(福华路店),餐饮服务;快餐厅;肯德基,星河COCO Park负B1层,114.054201,22.533939,广东省,深圳市,福田区,3.5,23.00,0755-88312096,http://store.is.autonavi.com/showpic/601ef6fe65d0efab5bed7e322e8c095e,http://store.is.autonavi.com/showpic/00777e11bcb203460647cf09e837e17c,http://store.is.autonavi.com/showpic/ef6184b3479210a3b09ab9ba0029cddf
B02F3066GF,潮江春(阳光店),餐饮服务;中餐厅;潮州菜,嘉宾路1号阳光酒店2层,114.122370,22.540380,广东省,深圳市,罗湖区,3.0,200.00,0755-82259304;0755-82259306;0755-82233888,http://store.is.autonavi.com/showpic/01a7ea46a243d42d8c0112f1a7911d65,http://store.is.autonavi.com/showpic/6e3361ac26b98220681771dc4077bc5f,http://store.is.autonavi.com/showpic/556579d106481c37ba81647ccfd6e73b
B02F37T3QB,嘉旺(沙头角分店),餐饮服务;中餐厅;中餐厅,沙头角海天路关前楼一楼商铺(海涛路2号),114.232168,22.545730,广东省,深圳市,盐田区,3.0,24.00,0755-25265718,http://store.is.autonavi.com/showpic/ab5f5dbedb05bca7db6ded5b2f550e1d,http://store.is.autonavi.com/showpic/e5e4a8816ee0db1fec921cf8fa066666,http://store.is.autonavi.com/showpic/43adc800dc8a2ef6f7b8f5b709158628
B02F38MTD6,肯德基(松坪山店),餐饮服务;快餐厅;肯德基,朗山路肉菜市场综合楼1-2层,113.949929,22.556924,广东省,深圳市,南山区,3.5,16.00,0755-26467607;0755-26930384,http://store.is.autonavi.com/showpic/9e60f81fc7fd8cd4d8a211657058bb9e,http://store.is.autonavi.com/showpic/4af4c07a660f08818802fdda8838098f,http://store.is.autonavi.com/showpic/7845483b12e551d6d7ac9218f764b275
B02F37URJ9,兰州拉面(莲花店),餐饮服务;中餐厅;清真菜馆,莲花路1088号,114.063931,22.559461,广东省,深圳市,福田区,4.8,16.00,0755-83068817,http://store.is.autonavi.com/showpic/15d6a61efdf89361c7ade033f71711db,http://store.is.autonavi.com/showpic/8383558b319490f2bd297b24914c3037,http://store.is.autonavi.com/showpic/f16d9a6b982b34ee068dd30f658f5970
B02F37U0YX,胜记(公园店),餐饮服务;中餐厅;广东菜(粤菜),红岭中路1001号荔枝公园东门(国信证券对面),114.104307,22.545685,广东省,深圳市,福田区,4.0,153.00,0755-82095333,http://store.is.autonavi.com/showpic/1db56b300f23b3d7cd73773791d44598,http://store.is.autonavi.com/showpic/89b2c761f3048fa32394a85475f18226,http://store.is.autonavi.com/showpic/015662c4c940f3f0b9f882a81591c26c
B02F38SQ3Q,必胜客(北方大厦店),餐饮服务;快餐厅;必胜客,深南中路3003号北方大厦1-2层,114.084675,22.540148,广东省,深圳市,福田区,5.0,65.00,0755-83278320,http://store.is.autonavi.com/showpic/b383fe83e4d2c6b4ca658766d05e3aa6,http://store.is.autonavi.com/showpic/11bb11ce25e30c2a45ebb3ef26201f9e,http://store.is.autonavi.com/showpic/d786f459e6e2f02f9fc7af7c446cd957
B02F37VXEL,野妹火锅(笋岗店),餐饮服务;中餐厅;火锅店,宝岗路92号2层,114.112966,22.565221,广东省,深圳市,罗湖区,3.5,62.00,0755-22230458;13189724085,http://store.is.autonavi.com/showpic/7cce29fbe6f8d45713af8ed598b0d8f0,http://store.is.autonavi.com/showpic/fb72a7fc62d12d223c85343f8d2e0aeb,http://store.is.autonavi.com/showpic/b031c8d9bb04a466a35c0ef54935d512
B02F37UIQL,木屋烧烤(南新店),餐饮服务;中餐厅;特色/地方风味餐厅,南头街丽乐美居C栋1层103号,113.916788,22.536204,广东省,深圳市,南山区,3.5,69.00,0755-26087191,http://store.is.autonavi.com/showpic/5ea4223a11aa6dc4f1d21b166c14e71a,http://store.is.autonavi.com/showpic/e49273bf984dd80ac9a515a6f1335345,http://store.is.autonavi.com/showpic/406ceaf0c0075b43e06656e123ff5dcf
B02F37WJ64,重庆乌江活鱼店(怡景大厦西),餐饮服务;中餐厅;海鲜酒楼,上梅林梅林路怡景大厦1楼,114.060244,22.568140,广东省,深圳市,福田区,3.5,70.00,0755-83108807;0755-83182897,http://store.is.autonavi.com/showpic/ab48b4bdd44462dda5d106a787291c4a,http://store.is.autonavi.com/showpic/12a01389bbbc0200d5f9bae58fbc3c81,http://store.is.autonavi.com/showpic/e12f696fe1005fc3eca52013ff0fb260
B02F37UAK5,肯德基(中心书城店),餐饮服务;快餐厅;肯德基,红荔路中心书城1层B140-B144,114.059966,22.547090,广东省,深圳市,福田区,3.0,25.00,0755-23992116;0755-23992161,http://store.is.autonavi.com/showpic/cf64ea8e22533b4bba864a3b10c322fb,http://store.is.autonavi.com/showpic/8cc2cfb43413bb8d196847fd647a9435,http://store.is.autonavi.com/showpic/7845483b12e551d6d7ac9218f764b275
B02F391MZ7,麦当劳(万象城),餐饮服务;快餐厅;麦当劳,宝安南路1881号华润中心一区中区万象城5层591商铺,114.110952,22.540000,广东省,深圳市,罗湖区,3.5,17.00,0755-82668539;0755-82668259,http://store.is.autonavi.com/showpic/0b7b2d2ada04dbeb45b89fa775a66ebf,http://store.is.autonavi.com/showpic/0e9a94b69dc247a60b45e8820ad88c8f,http://store.is.autonavi.com/showpic/f6e43f8214b384b5fd049e8a5a36c961
B02F37TZV3,龙记桂林米粉(嘉宾路店),餐饮服务;中餐厅;特色/地方风味餐厅,嘉宾东路与东门南路交界处东北侧临1014号,114.124201,22.541575,广东省,深圳市,罗湖区,3.3,10.00,0755-82179113;13808805667,http://store.is.autonavi.com/showpic/cee49de4fc05089a86853f4573c23f7a,http://store.is.autonavi.com/showpic/43a446eadf6937b99563eac37c271e0f,http://store.is.autonavi.com/showpic/3cb8a675f2d62b779341835e5689e421
B02F37U70X,芳都酒楼(龙华店),餐饮服务;中餐厅;综合酒楼,彩田路2048福建大厦B座,114.068567,22.533463,广东省,深圳市,福田区,4.1,59.00,0755-82993922;0755-82991122,http://store.is.autonavi.com/showpic/bc98af5038c3b57fc19e235dd6e077ef,http://store.is.autonavi.com/showpic/2e9fa41d1f99df85175bcb3fc4c4e250,http://store.is.autonavi.com/showpic/d225fa8398fe63c0e0331f3ea833a0a3
B02F37SCCR,肯德基(大芬店),餐饮服务;快餐厅;肯德基,布吉街道办中翠路桂芳园6期会所1层,114.140832,22.609889,广东省,深圳市,龙岗区,3.5,28.00,0755-89707412;0755-89708459,http://store.is.autonavi.com/showpic/cf64ea8e22533b4bba864a3b10c322fb,http://store.is.autonavi.com/showpic/4af4c07a660f08818802fdda8838098f,http://store.is.autonavi.com/showpic/f5782a82ab2b8b7e7c9143ad92735a05
B02F309PKS,必胜客(五洲风情店),餐饮服务;快餐厅;必胜客,深惠公路旁万鑫五洲风情MALLB区1层,114.274547,22.726843,广东省,深圳市,龙岗区,3.5,61.00,0755-84802425;0755-84867637,http://store.is.autonavi.com/showpic/4d000dab66029efe4e432c30b53d3acd,http://store.is.autonavi.com/showpic/e2602fa86c1870489f95805339582780,http://store.is.autonavi.com/showpic/60893e07d8b56de8943cfe91964f5f0f
B02F37USFO,拾味馆(京基百纳广场南山店),餐饮服务;中餐厅;中餐厅,白石路2168号京基百纳广场L2层L2-50,113.970207,22.530418,广东省,深圳市,南山区,4.0,74.00,0755-86283785,http://store.is.autonavi.com/showpic/53e0af3ac2a2acdde883eb0bef6cdeec,http://store.is.autonavi.com/showpic/41e0b19c0e6f0108f38977572cc92367,http://store.is.autonavi.com/showpic/d77be44b034b95725f1a7eb8440e19a0
B02F37SCCW,肯德基(高新区店),餐饮服务;快餐厅;肯德基,科苑大道高新区综合服务楼1层,113.945147,22.536964,广东省,深圳市,南山区,3.5,29.00,0755-26017721;0755-26017720,http://store.is.autonavi.com/showpic/b41eb80cc53eb3796ff4e5d7b13e9221,http://store.is.autonavi.com/showpic/366734a04b3aba12a24c96170845689a,http://store.is.autonavi.com/showpic/23107a49f964cc42f41a9c790044e382
B02F37VI8N,麦当劳(石岩得来速分店),餐饮服务;快餐厅;麦当劳,宝石南路第一工业区11号石岩国惠康1层,113.930725,22.676210,广东省,深圳市,宝安区,3.5,17.00,0755-29820091;0755-29820092,http://store.is.autonavi.com/showpic/0b7b2d2ada04dbeb45b89fa775a66ebf,http://store.is.autonavi.com/showpic/36ca27a558411cc36130346ab0e1eee9,http://store.is.autonavi.com/showpic/4d7704209d4f8bd1160dc2c7ff06e1c1
B02F37WBO2,田园酒家(龙岗店),餐饮服务;中餐厅;综合酒楼,嶂背路33号,114.255944,22.690678,广东省,深圳市,龙岗区,1.0,45.00,13714186076,http://store.is.autonavi.com/showpic/9fd14a997d869416295a3d0b6ffd5a10,http://store.is.autonavi.com/showpic/c4bc4ddd2c41f12fd077f1ea34c60570,http://store.is.autonavi.com/showpic/50bf4d1c3d48b903b9b4cc255268f0de
B02F37W65F,富淳饭店(华侨城店),餐饮服务;中餐厅;广东菜(粤菜),恩平街3号,113.992510,22.537275,广东省,深圳市,南山区,4.0,194.00,0755-26605188,http://store.is.autonavi.com/showpic/8e3224c164f78dd3ab4423b2c6002eb9,http://store.is.autonavi.com/showpic/547be9d31f284f7393641815da917846,http://store.is.autonavi.com/showpic/0abd36b0a8f4232b3c83e97fb8a62f72
B02F37VX9P,麦当劳(怡景中心城店),餐饮服务;快餐厅;麦当劳,福华一路3号怡景中心城B2层,114.059100,22.535774,广东省,深圳市,福田区,3.5,24.00,0755-82801521,http://store.is.autonavi.com/showpic/5453c4dad399f658124971ef4ffe7ab4,http://store.is.autonavi.com/showpic/02d6c4f71664c8153fa836f9a41e024d,http://store.is.autonavi.com/showpic/356d65fd35ca1785dd909ea9811d00ec
B02F37U7FT,千味涮(万象城),餐饮服务;中餐厅;火锅店,宝安南路1881号万象城F4层,114.110772,22.540334,广东省,深圳市,罗湖区,4.0,70.00,0755-22912995,http://store.is.autonavi.com/showpic/dcd89944db18937bbfb10ca821800b73,http://store.is.autonavi.com/showpic/fdfa84e75002b662ecfd3de2dcaa41bd,http://store.is.autonavi.com/showpic/9a4c80b8922deb4b6acc678071d29b24
B02F38IZWM,番番拉面(龙岗店),餐饮服务;快餐厅;快餐厅,龙翔大道世贸中心万家百货1层(近龙岗区政府),114.247029,22.717517,广东省,深圳市,龙岗区,3.5,45.00,0755-28959342,http://store.is.autonavi.com/showpic/88cbbd64a5deedab95ca83127ca9849f,http://store.is.autonavi.com/showpic/073f96dd7efc55fa28d739970382f063,http://store.is.autonavi.com/showpic/84f56e75a1546dfe24f38beb860481ca
B02F37WNF4,汉堡王(华强旗舰店),餐饮服务;快餐厅;快餐厅,华强北路桑达419栋2层217-226,114.087046,22.546035,广东省,深圳市,福田区,4.8,24.00,0755-82024922,http://store.is.autonavi.com/showpic/a390f5eba2da5393275ec060b835c932,http://store.is.autonavi.com/showpic/4d9854cd9b6090237a99f334193a45e4,http://store.is.autonavi.com/showpic/a97465b232ccc05acca5ea813e6457db
B02F37VI8M,肯德基(石岩店),餐饮服务;快餐厅;肯德基,石岩街道宝石南路207号万联购物广场1-2层,113.933964,22.680435,广东省,深圳市,宝安区,3.5,25.00,0755-27603018;0755-27600203,http://store.is.autonavi.com/showpic/0646c7d15e4bde6c55719bfc238f0488,http://store.is.autonavi.com/showpic/cf64ea8e22533b4bba864a3b10c322fb,http://store.is.autonavi.com/showpic/9df9cfaca74c0ff18a38e8a7abbf957d
B02F37SCCY,肯德基(万科城店),餐饮服务;快餐厅;肯德基,布吉镇坂雪岗大道万科城C区2号101号1-2层,114.066769,22.645772,广东省,深圳市,龙岗区,3.5,26.00,0755-89506053;0755-89506043;4009200715,http://store.is.autonavi.com/showpic/4af4c07a660f08818802fdda8838098f,http://store.is.autonavi.com/showpic/7845483b12e551d6d7ac9218f764b275,http://store.is.autonavi.com/showpic/45dd4483277a044886fe6be19c436f84
B02F38JMC8,湘粉人家(振华店),餐饮服务;中餐厅;湖南菜(湘菜),振华路47家乐大厦首层,114.092680,22.544415,广东省,深圳市,福田区,3.0,20.00,0755-83247669;0755-83237669,http://store.is.autonavi.com/showpic/77b3634d2d9941d7dc4c6b36619d2186,http://store.is.autonavi.com/showpic/214303474e8ede00628167f5b94c7662,http://store.is.autonavi.com/showpic/0b82b7de71addbe6d2a4f05828d3dbf3
B02F391N4M,肯德基(万象城),餐饮服务;快餐厅;肯德基,宝安南路1881号万象城中座B1层B32号,114.110710,22.540476,广东省,深圳市,罗湖区,3.5,28.00,0755-82668017;0755-82668019;4008823823,http://store.is.autonavi.com/showpic/6e2d247199cccf317d80088098ecd462,http://store.is.autonavi.com/showpic/d2ef4e3612f2910b0b8dbe1a672b4d40,http://store.is.autonavi.com/showpic/4cd2af3a1a149189d50488c793b891d9
B02F38K90G,汉堡王(深圳香林路分店),餐饮服务;快餐厅;快餐厅,香林路东海花园福禄居4号商店1-G18B号,114.025515,22.538058,广东省,深圳市,福田区,4.8,28.00,0755-22669721,http://store.is.autonavi.com/showpic/2e7f91e746cbc5780202567eafba648b,http://store.is.autonavi.com/showpic/c8b96082152d13149683788337a2c54a,http://store.is.autonavi.com/showpic/87e17205d746f31a48dd33d902aae073
B02F37WF2A,肯德基(大浪商业中心C栋),餐饮服务;快餐厅;肯德基,华旺路大浪商业中心C栋F1层,113.993404,22.673981,广东省,深圳市,龙华区,3.5,26.00,0755-28147766;4008823823,http://store.is.autonavi.com/showpic/23107a49f964cc42f41a9c790044e382,http://store.is.autonavi.com/showpic/807294cbf8e4e92067d5fdab4ab2e131,http://store.is.autonavi.com/showpic/3c49f12c310a0f1fb4594316d1a0fe7d
B02F37V8WV,肯德基(创新店),餐饮服务;快餐厅;肯德基,沙井镇中心路沙井天虹商场1层(创新路口),113.829298,22.720722,广东省,深圳市,宝安区,3.5,25.00,0755-29873129;0755-29873317;4009200715,http://store.is.autonavi.com/showpic/23107a49f964cc42f41a9c790044e382,http://store.is.autonavi.com/showpic/807294cbf8e4e92067d5fdab4ab2e131,http://store.is.autonavi.com/showpic/3c49f12c310a0f1fb4594316d1a0fe7d
B02F305GVR,川香楼,餐饮服务;中餐厅;四川菜(川菜),红荔路2001号四川大厦2层四川宾馆,114.095158,22.548789,广东省,深圳市,福田区,3.5,81.00,0755-83671988;0755-83673661,http://store.is.autonavi.com/showpic/4e5835b7cd7fb554de8158fb40b8aa2c,http://store.is.autonavi.com/showpic/6e396c3190b36a86987baf225ace621f,http://store.is.autonavi.com/showpic/a695ca625d42b0b601ba1f6f34f803e6
B02F37VFGH,肯德基(八卦岭店),餐饮服务;快餐厅;肯德基,八卦二路好又多量贩店1层,114.103435,22.558724,广东省,深圳市,福田区,3.5,27.00,0755-25876107;0755-82496748,http://store.is.autonavi.com/showpic/ad19b30f099240420d3208a521161a26,http://store.is.autonavi.com/showpic/17066e47225c5e4f0c7eba1488231d37,http://store.is.autonavi.com/showpic/0646c7d15e4bde6c55719bfc238f0488
B02F37V708,陶源(金光华广场),餐饮服务;中餐厅;广东菜(粤菜)|餐饮服务;中餐厅;综合酒楼,人民南路2028号金光华广场F7层,114.120029,22.539203,广东省,深圳市,罗湖区,3.5,152.00,0755-82611822;0755-82611133,http://store.is.autonavi.com/showpic/ec48d2d6347d58ebbb0b4e550c670496,http://store.is.autonavi.com/showpic/b930129a4e125556ad109f78926d773d,http://store.is.autonavi.com/showpic/260a47e0590ee7afbd3730f9bbc118ab
B02F37U9MC,江南厨子(海岸城店),餐饮服务;中餐厅;中餐厅,文心五路33号海岸城购物中心西区L3层331-332,113.935498,22.517582,广东省,深圳市,南山区,3.5,140.00,0755-86359988,http://store.is.autonavi.com/showpic/df6c421c9a7110b5d73889e92a9c94f0,http://store.is.autonavi.com/showpic/4658a923247a9ed32bf1b48cd9b41c4c,http://store.is.autonavi.com/showpic/2d9eecb07071e7816ab3e7db6f037f40
B02F37SCCG,肯德基(坪地店),餐饮服务;快餐厅;肯德基,坪地镇深惠公路坪洲百货1层,114.307021,22.768945,广东省,深圳市,龙岗区,3.5,22.00,0755-84097037,http://store.is.autonavi.com/showpic/23107a49f964cc42f41a9c790044e382,http://store.is.autonavi.com/showpic/807294cbf8e4e92067d5fdab4ab2e131,http://store.is.autonavi.com/showpic/3c49f12c310a0f1fb4594316d1a0fe7d
B02F309YI4,回味鸭血粉丝汤(国科店),餐饮服务;中餐厅;特色/地方风味餐厅,福虹路21号(国际科技大厦旁),114.083667,22.539751,广东省,深圳市,福田区,3.5,24.00,0755-25325959;0755-83279977,http://store.is.autonavi.com/showpic/fef3a7afaf6f2a8ad8b965a9b667ae86,http://store.is.autonavi.com/showpic/167ce7dd054d08ed2e1c0b171ef98080,http://store.is.autonavi.com/showpic/9a8a348f096314e52837c9dd7ec5b1f4
B02F37TQD1,麦当劳(松岗分店),餐饮服务;快餐厅;麦当劳,松岗镇松明大道4号,113.846123,22.768657,广东省,深圳市,宝安区,3.5,26.00,0755-27710894,http://store.is.autonavi.com/showpic/0b7b2d2ada04dbeb45b89fa775a66ebf,http://store.is.autonavi.com/showpic/550a55cf672f2addc2de0b583d9d5442,http://store.is.autonavi.com/showpic/acc6a4b90c830b5969c5557d3bc8d37a
B02F37SF9W,McDonald's(阳光湾畔),餐饮服务;快餐厅;麦当劳,坂田街道五和南路82号阳光湾畔1F层,114.061296,22.621923,广东省,深圳市,龙岗区,3.5,23.00,0755-28446993,http://store.is.autonavi.com/showpic/0b7b2d2ada04dbeb45b89fa775a66ebf,http://store.is.autonavi.com/showpic/7c584380ba48225f0a448b3293f54700,http://store.is.autonavi.com/showpic/099c6c1e13ad46412cb256ce5ab19a10
B02F37VQK9,必胜客(港隆城店),餐饮服务;快餐厅;必胜客,宝民二路129号君胜百货港隆城店1-2层,113.881068,22.581135,广东省,深圳市,宝安区,3.5,67.00,0755-27934954;0755-27934673,http://store.is.autonavi.com/showpic/aaa12491c65b7cc5c0ade96b79362d89,http://store.is.autonavi.com/showpic/9f0a96e9091e5b4277a83a6702d1c4bf,http://store.is.autonavi.com/showpic/71e51e61a8fcebd35fa66b60aaaf0300
B02F37URWC,木屋烧烤(东角头分店),餐饮服务;中餐厅;特色/地方风味餐厅,金世纪路12号,113.931861,22.484175,广东省,深圳市,南山区,4.0,69.00,0755-26863662,http://store.is.autonavi.com/showpic/3320842d949a69b9babd6016727faa57,http://store.is.autonavi.com/showpic/5ea4223a11aa6dc4f1d21b166c14e71a,http://store.is.autonavi.com/showpic/9706dbd58fb3dac064c7ac6366e3e117
B02F37VVEL,福鑫记(人民北路店),餐饮服务;中餐厅;火锅店,人民北路3090号物资大厦1层(近深圳中学),114.121017,22.554111,广东省,深圳市,罗湖区,3.5,63.00,0755-82254686,http://store.is.autonavi.com/showpic/5e45f4a1859e66149025960fe35f7836,http://store.is.autonavi.com/showpic/02cc20c07372d19e757ea309d1cd7d65,http://store.is.autonavi.com/showpic/e88a663d207d9c89325a5e3b0a29cb29
B02F37UBB0,木屋烧烤(园博园店),餐饮服务;中餐厅;特色/地方风味餐厅,园博东街54号,114.007044,22.537939,广东省,深圳市,福田区,4.0,73.00,0755-83716169,http://store.is.autonavi.com/showpic/0d441144f0b80482fd67e86f84e78497,http://store.is.autonavi.com/showpic/2387ef083fb320334e922e4abb4545fb,http://store.is.autonavi.com/showpic/590acfc3e7d8bb6493b08e5b83701856
B02F38N5EB,魔锅坊麻辣香锅(阳光第五季店),餐饮服务;中餐厅;特色/地方风味餐厅,五和大道南51-22号,114.060100,22.618781,广东省,深圳市,龙岗区,4.8,24.00,0755-82024922,http://store.is.autonavi.com/showpic/cc9d1587cb90628e2b1f57b9d1a11f70,http://store.is.autonavi.com/showpic/88d2e01a09507fb7807b29c2bdff6034,http://store.is.autonavi.com/showpic/e76e98bbdf3154fc08101884c71d9f3b
B02F37WGZ7,杜家鸡(清泉路),餐饮服务;中餐厅;中餐厅,清泉路美丽365花园G栋39号,114.032987,22.664555,广东省,深圳市,龙华区,3.5,38.00,15915456817,http://store.is.autonavi.com/showpic/7c9bfca0438db95a3f380927673970e9,http://store.is.autonavi.com/showpic/803c4a9b5e782605d2430b75281902f2,http://store.is.autonavi.com/showpic/e7bc50f86bbce690fa12c7d50bd4894f
B02F37VX17,木屋烧烤(振华分店),餐饮服务;中餐厅;特色/地方风味餐厅,振华西路25号,114.075541,22.545098,广东省,深圳市,福田区,3.5,66.00,0755-82795497,http://store.is.autonavi.com/showpic/5ea4223a11aa6dc4f1d21b166c14e71a,http://store.is.autonavi.com/showpic/b2d8af8f9cc346ac621da5f10db3870d,http://store.is.autonavi.com/showpic/e8ffa4f1812fd219550c976af8bce653
B02F38TE7S,兰州牛肉拉面(石龙路),餐饮服务;中餐厅;清真菜馆,石龙大道19-2号,113.967606,22.697975,广东省,深圳市,宝安区,3.0,38.00,0755-83247669;0755-83237669,http://store.is.autonavi.com/showpic/04b61416ad045a95d9747a5e56ddef27,http://store.is.autonavi.com/showpic/4f0161a2149e4a067be89fb02e59b94b,http://store.is.autonavi.com/showpic/89d593f4cc2e3dbbd4bb0b786cdd93a5
B02F38TDJN,兰州牛肉拉面(新安六路),餐饮服务;中餐厅;清真菜馆,新安六路A栋-106号,113.871633,22.560997,广东省,深圳市,宝安区,1.8,20.00,0755-82668017;0755-82668019;4008823823,http://store.is.autonavi.com/showpic/682823056a15acb41d135c6a3824322e,http://store.is.autonavi.com/showpic/4af79f17a485b4c1cbf2341167f0d5b7,http://store.is.autonavi.com/showpic/40a861b185f7ddc5d3e9edb41859210d
B02F38TB0O,兰州拉面(华强北路),餐饮服务;中餐厅;清真菜馆,深南中路2093号,114.087950,22.540290,广东省,深圳市,福田区,3.5,28.00,15637986155,http://store.is.autonavi.com/showpic/58f8e2d89d4a545d7725f123760305f3,http://store.is.autonavi.com/showpic/16e1b30e6024279f52044f255a2b054a,http://store.is.autonavi.com/showpic/775adaec782648fa0eec7ad66012998e
B02F37VP6E,肯德基(和平大润发店),餐饮服务;快餐厅;肯德基,和平东路与东环二路交汇处大润发龙华店1层,114.031072,22.657221,广东省,深圳市,龙华区,3.5,26.00,0755-29572587;4009200715,http://store.is.autonavi.com/showpic/17066e47225c5e4f0c7eba1488231d37,http://store.is.autonavi.com/showpic/6e2d247199cccf317d80088098ecd462,http://store.is.autonavi.com/showpic/e3c30486255dc32b143d54b2b762cc77
B02F37U9WF,湘攸大碗菜(南山店),餐饮服务;中餐厅;湖南菜(湘菜),南新路1035,113.913891,22.514551,广东省,深圳市,南山区,3.0,89.00,0755-86262824;0755-33556496,http://store.is.autonavi.com/showpic/4059dbfb0592aae5758bfc5a53c419df,http://store.is.autonavi.com/showpic/7724ef41adda81532e7b02ae4b348bd6,http://store.is.autonavi.com/showpic/8ba2c72ced06a6da3c711975c8a0e0e7
B02F306ME4,勝记饭店,餐饮服务;中餐厅;海鲜酒楼,八卦一路鹏盛村5栋,114.103692,22.557023,广东省,深圳市,福田区,3.5,81.00,0755-82491222;0755-82490808,http://store.is.autonavi.com/showpic/fcfe22e035ed5537d3a85b7bcf42c1fc,http://store.is.autonavi.com/showpic/7e954881cfba0109de59ad73607b2ed3,http://store.is.autonavi.com/showpic/aad4b53607dd767915fadd9a70caf0a2
B02F37SF9U,麦当劳(龙华店),餐饮服务;快餐厅;麦当劳,人民北路444号,114.017406,22.659910,广东省,深圳市,龙华区,3.5,26.00,0755-28149106,http://store.is.autonavi.com/showpic/0b7b2d2ada04dbeb45b89fa775a66ebf,http://store.is.autonavi.com/showpic/1e02a1bed41344f37211ac7401ad6fcc,http://store.is.autonavi.com/showpic/36ca27a558411cc36130346ab0e1eee9
B02F38JK2H,兰州拉面(登良店),餐饮服务;中餐厅;清真菜馆,登良路78号,113.920106,22.514499,广东省,深圳市,南山区,3.5,17.00,13058126319,http://store.is.autonavi.com/showpic/415c5d3ca7fa6561877ea300167fb7b9,http://store.is.autonavi.com/showpic/b930129a4e125556ad109f78926d773d,http://store.is.autonavi.com/showpic/260a47e0590ee7afbd3730f9bbc118ab
B02F37UEKA,佳宁娜(春风路),餐饮服务;中餐厅;综合酒楼,人民南路2002号佳宁娜广场4层,114.119591,22.536913,广东省,深圳市,罗湖区,4.2,90.00,0755-88822022;0755-82235826;0755-25182338,http://store.is.autonavi.com/showpic/8fdf4118c177f47ab6772875f1674ab3,http://store.is.autonavi.com/showpic/7552fbbbae7c996baaccefed4da7c248,http://store.is.autonavi.com/showpic/35d3d78e6230f04473d5cc064f8a1dc1
B02F38IOMF,麦当劳(布心店),餐饮服务;快餐厅;麦当劳,太白路1088号(太白路布心肉菜市场),114.140641,22.576753,广东省,深圳市,罗湖区,3.5,17.00,0755-25770741;0755-25789655,http://store.is.autonavi.com/showpic/0b7b2d2ada04dbeb45b89fa775a66ebf,http://store.is.autonavi.com/showpic/2b847c56970ca3b4b68958f1c62584d3,http://store.is.autonavi.com/showpic/36ca27a558411cc36130346ab0e1eee9
B02F37WRTM,一心一味(翠华楼北),餐饮服务;中餐厅;中餐厅,蔡屋围新八坊33-2,114.108008,22.538628,广东省,深圳市,罗湖区,3.5,24.00,0755-25325959;0755-83279977,http://store.is.autonavi.com/showpic/558b993ca3106bdfef9f5c50,http://store.is.autonavi.com/showpic/558b9935a3106bdfef9f5c44,http://store.is.autonavi.com/showpic/558b993ca3106bdfef9f5c4e
B02F37WETM,真功夫(沙井佳华店),餐饮服务;快餐厅;快餐厅,沙井镇新沙路276号百佳华(沙井店)1F层,113.824644,22.728290,广东省,深圳市,宝安区,3.5,24.00,0755-29757711;0755-27725353,http://store.is.autonavi.com/showpic/46766e4ca87f7f0ca3a74a873fbbf408,http://store.is.autonavi.com/showpic/61d099660b2454c025a722f81ab06047,http://store.is.autonavi.com/showpic/194837f04f4f51a062917e0443f9e72c
B02F37UALO,麦当劳(华融店),餐饮服务;快餐厅;麦当劳,民田路182华融大厦1栋1层,114.053150,22.537897,广东省,深圳市,福田区,3.5,23.00,0755-82706519;0755-82706520,http://store.is.autonavi.com/showpic/0b7b2d2ada04dbeb45b89fa775a66ebf,http://store.is.autonavi.com/showpic/e5dbe1c563348ccfa38ca61d9ae84cc6,http://store.is.autonavi.com/showpic/d5f98000883f989fbf48077484c1d45a
B02F37TFUX,中国兰州牛肉拉面(振兴店),餐饮服务;中餐厅;清真菜馆,振兴路97-3号,114.082863,22.546349,广东省,深圳市,福田区,3.5,13.00,0755-83360715,http://store.is.autonavi.com/showpic/119486c87d9d82344f8919685af3367d,http://store.is.autonavi.com/showpic/bccc4f17be54958d0f832ebf3d47eb94,http://store.is.autonavi.com/showpic/aef911e837cb3a02678fe1cca3aaae3c
B02F306OJ7,湘攸大碗菜(沙尾店),餐饮服务;中餐厅;湖南菜(湘菜),福强路元盛兴苑A栋5号首层,114.042045,22.520318,广东省,深圳市,福田区,3.5,60.00,0755-83414228;13828715633,http://store.is.autonavi.com/showpic/8ba2c72ced06a6da3c711975c8a0e0e7,http://store.is.autonavi.com/showpic/bca60d5aab1223d709525209116a5381,http://store.is.autonavi.com/showpic/16ce3fec3b1c8c827bb697838c037e5c
B02F37W08J,千味涮(金光华广场),餐饮服务;中餐厅;火锅店,人民南路2028号金光华广场B2层015B,114.120226,22.539497,广东省,深圳市,罗湖区,4.7,69.00,0755-82611502,http://store.is.autonavi.com/showpic/af026542c101a47786a760bab9f0d1b1,http://store.is.autonavi.com/showpic/190f02cbd2b2333c54cce1a99c997252,http://store.is.autonavi.com/showpic/ced4e4538c348825dd15da834ffc3b0a
B02F37TSBA,兰州牛肉拉面(南光路),餐饮服务;中餐厅;清真菜馆,南光路196号,113.928161,22.530222,广东省,深圳市,南山区,3.5,15.00,0755-36938438;18697294344,http://store.is.autonavi.com/showpic/424ed46018cac0f6e098138c14bb96e8,http://store.is.autonavi.com/showpic/48ad92e35d1b70249e9406e0e29740bb,http://store.is.autonavi.com/showpic/e77dc59b207e50e77c8d4bf134e1b94b
B02F306KPH,麦当劳(景田店),餐饮服务;快餐厅;麦当劳,莲花路2020金色家园1层F号,114.044739,22.553745,广东省,深圳市,福田区,3.5,26.00,0755-83193300;0755-83193301;4008517517,http://store.is.autonavi.com/showpic/0b7b2d2ada04dbeb45b89fa775a66ebf,http://store.is.autonavi.com/showpic/9fba4e00e0ac4a7cf341ae5a24569678,http://store.is.autonavi.com/showpic/813eee0290f50be91741c0b10edf7226
B02F3024CC,新世界餐厅(弘雅店),餐饮服务;中餐厅;中餐厅,宝民一路262,113.892856,22.571064,广东省,深圳市,宝安区,3.5,40.00,0755-27809676;0755-27809675,http://store.is.autonavi.com/showpic/7a50dda51d4a0e3cd6ddd90504dae054,http://store.is.autonavi.com/showpic/483d06129653529b7854945145271295,http://store.is.autonavi.com/showpic/999c4ababc29d7d637d6bbd42a16b757
B02F38ISP2,肯德基(油松店),餐饮服务;快餐厅;肯德基,龙华街道东环一路与油松路交汇处家和福百货1层,114.044947,22.643431,广东省,深圳市,龙华区,3.5,26.00,0755-29160524;4009200715;0755-21501611,http://store.is.autonavi.com/showpic/e3c30486255dc32b143d54b2b762cc77,http://store.is.autonavi.com/showpic/2767ae41d3731aa4197816b7eec725c1,http://store.is.autonavi.com/showpic/6fc1b3c5fd1dbea71ee4ae91e6acb39b
B02F38ISMM,五谷芳乳鸽王(龙华店),餐饮服务;中餐厅;广东菜(粤菜),民清路与东环一路交汇处油松商务大厦1-2层,114.041849,22.644679,广东省,深圳市,龙华区,4.0,96.00,0755-21505149;0755-21505142,http://store.is.autonavi.com/showpic/2a8bc1ce91c70280757db20990321b61,http://store.is.autonavi.com/showpic/1e2af3580f07bf1d9d8323e8e3806145,http://store.is.autonavi.com/showpic/39182be5bf259c7bd4356fed54d9e6e9
B02F305GV2,肯德基(前进店),餐饮服务;快餐厅;肯德基,前进路宝城10区新安街道办泰华商业城1层,113.904363,22.568426,广东省,深圳市,宝安区,3.5,24.00,0755-27880539;4008823823,http://store.is.autonavi.com/showpic/7845483b12e551d6d7ac9218f764b275,http://store.is.autonavi.com/showpic/f546ea315a203a0e96dd44aae2e6905b,http://store.is.autonavi.com/showpic/957b7c5af0e05c44565886445c3705b5
B02F38JLZV,芙蓉楼(龙华分店),餐饮服务;中餐厅;综合酒楼,华园道17号米兰时尚酒店2层,114.034245,22.666289,广东省,深圳市,龙华区,3.5,82.00,0755-81799035;0755-81799939;15889607402,http://store.is.autonavi.com/showpic/dc022b247a219ef134a919d6c66f3e12,http://store.is.autonavi.com/showpic/f8adf92dbb398739c91c8eca11f6e67d,http://store.is.autonavi.com/showpic/73ed780195707d6358ff3e93eaeb1101
B02F37VM97,肯德基(天虹商场民治店),餐饮服务;快餐厅;肯德基,民治街道民治大道路与民丰路交汇处横岭工业区B栋1065号天虹商场1层,114.045188,22.610186,广东省,深圳市,龙华区,3.5,27.00,0755-29523981;4008823823,http://store.is.autonavi.com/showpic/4af4c07a660f08818802fdda8838098f,http://store.is.autonavi.com/showpic/807294cbf8e4e92067d5fdab4ab2e131,http://store.is.autonavi.com/showpic/3c49f12c310a0f1fb4594316d1a0fe7d
B02F38IYUZ,香蜜轩(世界之窗店),餐饮服务;中餐厅;中餐厅,深南大道9037-11号,113.972896,22.536333,广东省,深圳市,南山区,4.0,176.00,0755-25000333;0755-86383311,http://store.is.autonavi.com/showpic/bf6e9c0e6d540226b56b874c3bce9de9,http://store.is.autonavi.com/showpic/59f41c048b607fa916f2ebe8375463e1,http://store.is.autonavi.com/showpic/c3fc7c0549e387d094bddfe05f0d1e45
B02F37VXEX,福鑫记(皇岗店),餐饮服务;中餐厅;中餐厅,金田路皇岗一街皇岗市场北座一楼,114.062213,22.526537,广东省,深圳市,福田区,4.0,94.00,0755-83803543;0755-23823113;18038048503,http://store.is.autonavi.com/showpic/d138130eb0edb85d127a0f7075b1db79,http://store.is.autonavi.com/showpic/c57b7ba8ef7e93ce6075a00d0d55adc5,http://store.is.autonavi.com/showpic/1c1ae6b1478e710a56685492fc47be93
B02F37VX15,小鱼郎二郎田鸡(振华西路店),餐饮服务;中餐厅;四川菜(川菜),振华西路11号(尝得利火锅旁边),114.076432,22.545074,广东省,深圳市,福田区,3.0,70.00,0755-82795336,http://store.is.autonavi.com/showpic/e69f20a48ded22915dff51e0a5eab07c,http://store.is.autonavi.com/showpic/6077ee8496d0c12f6f48e23e7da6f4be,http://store.is.autonavi.com/showpic/f45f8eae0bba53464947dd8202aa6a9a
B02F37SF9X,麦当劳(新洲绿洲景花园分店),餐饮服务;快餐厅;麦当劳,福强路与新洲三街交汇处绿景花园2层,114.043474,22.521529,广东省,深圳市,福田区,3.5,26.00,0755-88291570,http://store.is.autonavi.com/showpic/0b7b2d2ada04dbeb45b89fa775a66ebf,http://store.is.autonavi.com/showpic/56455c56b1502b7e7659fc3b59cc9ec7,http://store.is.autonavi.com/showpic/36ca27a558411cc36130346ab0e1eee9
B02F3064IL,必胜客(前进店),餐饮服务;快餐厅;必胜客,前进一路169号(香格美拉旁边),113.905222,22.567292,广东省,深圳市,宝安区,3.5,61.00,0755-27662694,http://store.is.autonavi.com/showpic/d4f31cbe9b320f24a607a0528aead687,http://store.is.autonavi.com/showpic/d47c849afceda05937cf96e656ef239f,http://store.is.autonavi.com/showpic/d786f459e6e2f02f9fc7af7c446cd957
B02F38TD7S,沙县小吃(丹竹头店),餐饮服务;快餐厅;快餐厅,岭背路十七巷9-2,114.152010,22.619286,广东省,深圳市,龙岗区,3.5,17.00,18250589697,http://store.is.autonavi.com/showpic/d62c8edb55a06c589854eeff325499b3,http://store.is.autonavi.com/showpic/2b847c56970ca3b4b68958f1c62584d3,http://store.is.autonavi.com/showpic/36ca27a558411cc36130346ab0e1eee9
B02F38SLQH,沙县小吃(军田七巷),餐饮服务;快餐厅;快餐厅,荔枝园小区17号,114.236457,22.692297,广东省,深圳市,龙岗区,3.5,24.00,18675512867,http://store.is.autonavi.com/showpic/63db7045901bcc0ca30235949cd51e0e,http://store.is.autonavi.com/showpic/558b9935a3106bdfef9f5c44,http://store.is.autonavi.com/showpic/558b993ca3106bdfef9f5c4e
B02F38J3GL,跳跳鱼(葵涌店),餐饮服务;中餐厅;海鲜酒楼,葵涌街道三溪曾屋四巷7号,114.430054,22.638315,广东省,深圳市,龙岗区,4.9,130.00,13510235363;0755-89561739,http://store.is.autonavi.com/showpic/1aa42e33c9cd9589dc2ee6bb4ad88c7a,http://store.is.autonavi.com/showpic/fab8c469de1145ac7175f30fbe5befb1,http://store.is.autonavi.com/showpic/c928e060384e83c70338cd1054025d33
B02F37WQHX,麦当劳(前海2店),餐饮服务;快餐厅;麦当劳,前海路0389号雷圳碧榕湾海景花园东区商业楼,113.905283,22.510682,广东省,深圳市,南山区,3.5,25.00,0755-86640103;0755-86640101,http://store.is.autonavi.com/showpic/0b7b2d2ada04dbeb45b89fa775a66ebf,http://store.is.autonavi.com/showpic/d5aa9da342b3f010fc3c47b6ea6b8b02,http://store.is.autonavi.com/showpic/36ca27a558411cc36130346ab0e1eee9
B02F37VTFZ,小芙蓉(华侨城店),餐饮服务;中餐厅;湖南菜(湘菜),华侨城西部市场2层202,113.983284,22.536454,广东省,深圳市,南山区,4.0,64.00,0755-26908886,http://store.is.autonavi.com/showpic/42678d9f46cbf924d21745192c2ff587,http://store.is.autonavi.com/showpic/399e077f272bdf9496c7281555ce34ab,http://store.is.autonavi.com/showpic/d37e5f897ed592547ba4aee9bee61a4a
B02F37U6BQ,麦当劳(锦绣江南分店),餐饮服务;快餐厅;麦当劳,龙华街道梅龙路锦绣江南4期1057号,114.031424,22.637451,广东省,深圳市,龙华区,3.5,21.00,0755-29552550,http://store.is.autonavi.com/showpic/0b7b2d2ada04dbeb45b89fa775a66ebf,http://store.is.autonavi.com/showpic/36ca27a558411cc36130346ab0e1eee9,http://store.is.autonavi.com/showpic/91cce671465fb571fde4288320cb17ed
B02F37WILP,必胜客(万科城店),餐饮服务;快餐厅;必胜客,坂田坂雪岗大道万科城二区29号,114.067238,22.649484,广东省,深圳市,龙岗区,3.5,69.00,0755-89581705;0755-89581706,http://store.is.autonavi.com/showpic/3cdc135443953ed0d15d405b67a01ee1,http://store.is.autonavi.com/showpic/e2602fa86c1870489f95805339582780,http://store.is.autonavi.com/showpic/db749ab685f21765ad61097bc73119bb
B02F37UB9J,肯德基(竹子林餐厅店),餐饮服务;快餐厅;肯德基,竹子林四路乐福购物广场1层,114.013271,22.535803,广东省,深圳市,福田区,3.5,27.00,0755-83711526,http://store.is.autonavi.com/showpic/cf64ea8e22533b4bba864a3b10c322fb,http://store.is.autonavi.com/showpic/101affed71cad4bb7573a4454302491d,http://store.is.autonavi.com/showpic/1041329240de1e8d9f2ca8182601092b
B02F37VRQ3,肯德基(岁宝百货),餐饮服务;快餐厅;肯德基,聚福路金色年华家园岁宝百货1F层,114.171171,22.561806,广东省,深圳市,罗湖区,3.5,30.00,0755-25739862;0755-25735419,http://store.is.autonavi.com/showpic/9272a108fa11d8bdcb546e3f6b6bf1c7,http://store.is.autonavi.com/showpic/16839589849ef285a427c053a1fc936e,http://store.is.autonavi.com/showpic/00aedbc456ad0a6973862d65f80b572a
B02F37VQP9,肯德基(裕客隆店),餐饮服务;快餐厅;肯德基,沙井路180号裕客隆购物广场1层,113.807811,22.729227,广东省,深圳市,宝安区,3.5,26.00,0755-27208946;0755-27208956,http://store.is.autonavi.com/showpic/61d518f1c1372cb8ee4116f0549fd16d,http://store.is.autonavi.com/showpic/f7c7c8594f5dec7b62e501557c279a41,http://store.is.autonavi.com/showpic/c9968a51449db603b24d12c3df2b072f
B02F306KQZ,嘉旺(科技园分店),餐饮服务;快餐厅;快餐厅,高新南一道9-6号中科大厦1层,113.953717,22.538054,广东省,深圳市,南山区,3.5,19.00,0755-26995328;0755-26995338,http://store.is.autonavi.com/showpic/55ec1984a310f1fe8ea5e658,http://store.is.autonavi.com/showpic/13fcd2d15e058cbbb08ad4af9c945313,http://store.is.autonavi.com/showpic/71a1d29f67dcb319b34495a0c39e4816
B02F38JBNZ,元气寿司(星河·Coco Park),餐饮服务;外国餐厅;日本料理,福华三路268号星河·Coco Park B1层,114.054179,22.533698,广东省,深圳市,福田区,4.0,101.00,0755-83273759,http://store.is.autonavi.com/showpic/65aec6a0c5d3d39b81ea1e8b70d11e51,http://store.is.autonavi.com/showpic/c8abe5f3d72efd63eee2b19bfa5d4c7f,http://store.is.autonavi.com/showpic/18f00d34a0fc69fcc16ccf34c7a8a7fa
B02F37WK0F,兰州拉面(华宁路店),餐饮服务;中餐厅;清真菜馆,华宁路7号,113.990139,22.690131,广东省,深圳市,龙华区,2.0,24.00,0755-27880539;4008823823,http://store.is.autonavi.com/showpic/a468a2920f76093b09b778a8b6b17a77,http://store.is.autonavi.com/showpic/41934b55c7e8a2b3a0d9118be04d32bc,http://store.is.autonavi.com/showpic/a6692a0e2cf0471bac84f34fbfd0320c
B02F37W5O7,必胜宅急送(翠竹路店),餐饮服务;快餐厅;必胜客,翠竹路2048-6号,114.129533,22.571300,广东省,深圳市,罗湖区,3.5,50.00,0755-25658376;4008123123;0755-25658713,http://store.is.autonavi.com/showpic/c04dc268a3feecdfc7bbe1b3d4f95dc4,http://store.is.autonavi.com/showpic/d619391578200a1fdda1e469294f8cb7,http://store.is.autonavi.com/showpic/082d88b8521d009141081fa95b00913d
B02F37VQTU,肯德基(龙平店),餐饮服务;快餐厅;肯德基,龙平东路58号女人天下天下广场一层,114.278472,22.730722,广东省,深圳市,龙岗区,3.5,26.00,0755-84830910;0755-84833256,http://store.is.autonavi.com/showpic/cf64ea8e22533b4bba864a3b10c322fb,http://store.is.autonavi.com/showpic/4af4c07a660f08818802fdda8838098f,http://store.is.autonavi.com/showpic/957b7c5af0e05c44565886445c3705b5
B02F37VHK1,肯德基(福永店),餐饮服务;快餐厅;肯德基,福永镇福永大道永安南城百货首层,113.819248,22.668758,广东省,深圳市,宝安区,4.9,30.00,4008823823;4009200715,http://store.is.autonavi.com/showpic/c79f6ced599dad0cf3c7338b22c21c62,http://store.is.autonavi.com/showpic/3e337d44e6446c7afd4c862b176ea876,http://store.is.autonavi.com/showpic/823a76c15f7f1dad9e744f0398738841
B02F37UCJH,麦当劳(上沙分店),餐饮服务;快餐厅;麦当劳,上沙七路上沙综合商业楼1层123号,114.030064,22.524548,广东省,深圳市,福田区,3.5,23.00,0755-82553969,http://store.is.autonavi.com/showpic/0b7b2d2ada04dbeb45b89fa775a66ebf,http://store.is.autonavi.com/showpic/36ca27a558411cc36130346ab0e1eee9,http://store.is.autonavi.com/showpic/df4dcca1f6c2212e656233d12f9fcaca
B02F306QI8,肯德基(宝珠店),餐饮服务;快餐厅;肯德基,西丽珠光路万佳百货1-2层,113.959266,22.571080,广东省,深圳市,南山区,3.0,34.00,0755-26757980,http://store.is.autonavi.com/showpic/4af4c07a660f08818802fdda8838098f,http://store.is.autonavi.com/showpic/282bdf06e156007d31ecdc86a174190a,http://store.is.autonavi.com/showpic/4ab7b1e922a572d8d3e77e3918212c2e
B02F306FAW,肯德基(梅华店),餐饮服务;快餐厅;肯德基,梅华路103号光荣大厦1层,114.056457,22.564364,广东省,深圳市,福田区,3.5,34.00,0755-83318219,http://store.is.autonavi.com/showpic/cf64ea8e22533b4bba864a3b10c322fb,http://store.is.autonavi.com/showpic/7620a09d7b74e812f20c51bddf3eca58,http://store.is.autonavi.com/showpic/a99f65b7365aeefb2030d0c59e9b26b0
B02F306EJ1,肯德基(百佳华商场),餐饮服务;快餐厅;肯德基,金辉路11-5号百佳华商场1层,113.893956,22.779241,广东省,深圳市,宝安区,3.5,21.00,0755-27105641;4009200715,http://store.is.autonavi.com/showpic/cf64ea8e22533b4bba864a3b10c322fb,http://store.is.autonavi.com/showpic/4f375245b14cc1fd000c079c5cb0081b,http://store.is.autonavi.com/showpic/bdc2158a9d621a955d79ef766aec93f0
B02F30608S,新芳都酒楼(罗湖店),餐饮服务;中餐厅;广东菜(粤菜),罗芳路深港新村2栋2层,114.148388,22.550369,广东省,深圳市,罗湖区,3.5,100.00,0755-22243777;0755-22243555,http://store.is.autonavi.com/showpic/df3c0afe111aa241de529feeef8f8592,http://store.is.autonavi.com/showpic/879b40d913e571b4ff7ceddf0bb4e031,http://store.is.autonavi.com/showpic/dacb99db51d23db3c5c7dea3d4962903
B02F3057QH,汉阳馆正宗韩国料理(华侨城店),餐饮服务;外国餐厅;韩国料理,香山中街1-5号,113.976667,22.547385,广东省,深圳市,南山区,4.0,116.00,0755-86080389;0755-86080386,http://store.is.autonavi.com/showpic/77f5e34d85963f4abab578904d0e78a1,http://store.is.autonavi.com/showpic/e261dde8044683129c234876321127ff,http://store.is.autonavi.com/showpic/be7f6a77bdc7c0bb36e4b41040457c75
B02F37WNVG,麦当劳(桂庙路店),餐饮服务;快餐厅;麦当劳,南山大道1175号新绿岛大厦1层B号,113.922799,22.523772,广东省,深圳市,南山区,3.5,23.00,0755-26553768;0755-26553766,http://store.is.autonavi.com/showpic/0b7b2d2ada04dbeb45b89fa775a66ebf,http://store.is.autonavi.com/showpic/0e9a94b69dc247a60b45e8820ad88c8f,http://store.is.autonavi.com/showpic/9db47cef5e7093520202c50f0808d986
B02F37VB57,肯德基(百仕达店),餐饮服务;快餐厅;肯德基,太宁路38号永旺2层,114.138499,22.568985,广东省,深圳市,罗湖区,3.5,27.00,0755-25003193;4009200715;0755-25000511,http://store.is.autonavi.com/showpic/6e2d247199cccf317d80088098ecd462,http://store.is.autonavi.com/showpic/282bdf06e156007d31ecdc86a174190a,http://store.is.autonavi.com/showpic/5be82ac8568e39dac5153beb0ddedb28
B02F37SCRV,正宗兰州牛肉拉面(南山大道),餐饮服务;中餐厅;清真菜馆,南山大道3015-4号,113.923390,22.542515,广东省,深圳市,南山区,4.0,40.00,0755-26908886,http://store.is.autonavi.com/showpic/85739996686ba289c61d35e13e5e7b63,http://store.is.autonavi.com/showpic/dc6bc35aed7834631c1e9a4513375fcb,http://store.is.autonavi.com/showpic/3980cd9d61aea007470acc5a80efb6bd
B02F38SJJ4,清真兰州拉面(东晓店),餐饮服务;中餐厅;清真菜馆,东晓路3059号,114.137711,22.582695,广东省,深圳市,罗湖区,5.0,11.00,13612950217,http://store.is.autonavi.com/showpic/3b7c427c546ead2ae6ed9afa4ddbce13,http://store.is.autonavi.com/showpic/8e92558e80aea3cb527bfdadb6422dc0,http://store.is.autonavi.com/showpic/935f4c378983e2d8ad241aa64120e3f7
B02F38OJHR,兰州牛肉拉面(公园路东一巷),餐饮服务;中餐厅;清真菜馆,25区商业街兴业宿舍4栋,113.911194,22.570731,广东省,深圳市,宝安区,3.5,69.00,0755-89581705;0755-89581706,http://store.is.autonavi.com/showpic/82619183cae40bd715f7a4b1c5af777b,http://store.is.autonavi.com/showpic/e2602fa86c1870489f95805339582780,http://store.is.autonavi.com/showpic/db749ab685f21765ad61097bc73119bb
B02F306E5Z,肯德基(金鹏路店),餐饮服务;快餐厅;肯德基,布吉镇金鹏路24号(国都花园1-2层),114.117919,22.605651,广东省,深圳市,龙岗区,3.5,27.00,0755-28288879,http://store.is.autonavi.com/showpic/cf64ea8e22533b4bba864a3b10c322fb,http://store.is.autonavi.com/showpic/101affed71cad4bb7573a4454302491d,http://store.is.autonavi.com/showpic/1041329240de1e8d9f2ca8182601092b
B02F37VLWF,麦当劳(平湖店),餐饮服务;快餐厅;麦当劳,守珍街道114号,114.131003,22.694261,广东省,深圳市,龙岗区,3.5,23.00,0755-28843051,http://store.is.autonavi.com/showpic/0b7b2d2ada04dbeb45b89fa775a66ebf,http://store.is.autonavi.com/showpic/0e9a94b69dc247a60b45e8820ad88c8f,http://store.is.autonavi.com/showpic/7d784c4a05d7f48d775941625152bccf
B02F37VK2J,肯德基(天安数码新城店),餐饮服务;快餐厅;肯德基,中心城天安数码城,114.217378,22.720748,广东省,深圳市,龙岗区,3.5,20.00,0755-85205060;4008823823,http://store.is.autonavi.com/showpic/cf64ea8e22533b4bba864a3b10c322fb,http://store.is.autonavi.com/showpic/23107a49f964cc42f41a9c790044e382,http://store.is.autonavi.com/showpic/807294cbf8e4e92067d5fdab4ab2e131
B02F37VIPE,肯德基(港隆城店),餐饮服务;快餐厅;肯德基,宝民二路129号君胜百货1-2层,113.881469,22.581793,广东省,深圳市,宝安区,3.5,25.00,0755-27586786,http://store.is.autonavi.com/showpic/cf64ea8e22533b4bba864a3b10c322fb,http://store.is.autonavi.com/showpic/44281289c6876f207fd3a77fdd13bcba,http://store.is.autonavi.com/showpic/4af4c07a660f08818802fdda8838098f
B02F37UIZI,肯德基(京基百纳广场南山店),餐饮服务;快餐厅;肯德基,白石路168号京基百纳广场(南山店)L1层L1-04、L1-07,113.968410,22.530902,广东省,深圳市,南山区,4.8,30.00,0755-86286471,http://store.is.autonavi.com/showpic/cf64ea8e22533b4bba864a3b10c322fb,http://store.is.autonavi.com/showpic/957b7c5af0e05c44565886445c3705b5,http://store.is.autonavi.com/showpic/39debce90ac9a194c06a91cae564beb4
B02F305NAL,嘉旺(珠光路店),餐饮服务;中餐厅;中餐厅,珠光路282号,113.959294,22.571512,广东省,深圳市,南山区,3.0,19.00,0755-86276238,http://store.is.autonavi.com/showpic/6109515e10bf5b9137a19010d7de0d78,http://store.is.autonavi.com/showpic/2b56c5fc91d3398b8c233574dfcd4b21,http://store.is.autonavi.com/showpic/0430c995de4f803365ca322ed47457db
B02F38JO8H,兰州拉面(乌石头路店),餐饮服务;中餐厅;清真菜馆,乌石头路12-5号,113.949478,22.556306,广东省,深圳市,南山区,4.8,23.00,13897028878;13323456336,http://store.is.autonavi.com/showpic/d3955ec979facba4d170836aff4ad052,http://store.is.autonavi.com/showpic/a173ad4d43e5f0c985cac73c6f62e53b,http://store.is.autonavi.com/showpic/5226a8490e2412f23c1e50ef1d785076
B02F37W5ZF,嘉旺(乐园分店),餐饮服务;快餐厅;快餐厅,湖贝路1095号,114.128230,22.545765,广东省,深圳市,罗湖区,3.5,20.00,0755-82234858;0755-82205202,http://store.is.autonavi.com/showpic/d84b2bcf73479bc89877f84faee01966,http://store.is.autonavi.com/showpic/171de65135cfd858602f74013987df2c,http://store.is.autonavi.com/showpic/6076122c62469dcc12af9673b73601c8
B02F37VXYU,嘉旺(博园分店),餐饮服务;快餐厅;快餐厅,紫竹六道49号敦煌大厦1层,114.005351,22.534079,广东省,深圳市,福田区,3.0,17.00,0755-88376458;0755-88376448;0755-88376459,http://store.is.autonavi.com/showpic/95afeab84393dc64a1c441cd86fb435a,http://store.is.autonavi.com/showpic/26635c4daf392774462ecb15d1827c53,http://store.is.autonavi.com/showpic/a144151b77162485ad828fbe79b61b36
B02F38J3DV,吉阿婆麻辣烫,餐饮服务;中餐厅;特色/地方风味餐厅,布吉锦龙路89号万科红生活广场南区F1层,114.126385,22.597982,广东省,深圳市,龙岗区,3.5,15.00,0755-82553969,http://store.is.autonavi.com/showpic/0158da066797da199f5e20d9baaa324f,http://store.is.autonavi.com/showpic/f38bf7955940d132ac051bfbaf183f7f,http://store.is.autonavi.com/showpic/f7dfb46f64472a0093b1ecbc5fdfd0ce
B02F38ISMN,麦当劳(凤凰大道DT餐厅),餐饮服务;快餐厅;麦当劳,福永街道凤凰社区凤凰山大道美食街第3栋1层,113.844153,22.685314,广东省,深圳市,宝安区,3.5,41.00,0755-29128566;0755-29974553;4008517517,http://store.is.autonavi.com/showpic/0b7b2d2ada04dbeb45b89fa775a66ebf,http://store.is.autonavi.com/showpic/0e9a94b69dc247a60b45e8820ad88c8f,http://store.is.autonavi.com/showpic/1e94e53f0acaca812716f0fc84fa8a73
B02F37WIM6,麦当劳(新生村得来速分店),餐饮服务;快餐厅;麦当劳,龙岗街道新生村社区深惠路1337号综合楼,114.282140,22.740416,广东省,深圳市,龙岗区,3.5,26.00,0755-85200500,http://store.is.autonavi.com/showpic/0b7b2d2ada04dbeb45b89fa775a66ebf,http://store.is.autonavi.com/showpic/36ca27a558411cc36130346ab0e1eee9,http://store.is.autonavi.com/showpic/4a7fa4d4c1b28f9f83b242abfb4a52e4
B02F37ULO8,真功夫(振华路店),餐饮服务;快餐厅;快餐厅,振华路55-57号,114.091763,22.544346,广东省,深圳市,福田区,3.5,26.00,0755-83259050;4006927927;0755-83205488,http://store.is.autonavi.com/showpic/41cff1206a33ccefe50f82751f2fb2ad,http://store.is.autonavi.com/showpic/22038e02b9e02e9321f2b53edc8a83ca,http://store.is.autonavi.com/showpic/1c64c5994189c11b3870a0dc394ca271
B02F37THN7,农家冲(车公庙店),餐饮服务;中餐厅;湖南菜(湘菜),泰然四路210栋111号,114.025982,22.533329,广东省,深圳市,福田区,3.5,51.00,0755-83445419;0755-83413544;18873287558,http://store.is.autonavi.com/showpic/ad8d7a4afea497350bd701b86a0781b1,http://store.is.autonavi.com/showpic/1481e0e965c577b35f555f4046fb6e0d,http://store.is.autonavi.com/showpic/c861b87ba70280cc3fae7d60a3643b7f
B02F306EUR,肯德基(宝华店),餐饮服务;快餐厅;肯德基,龙华街道人民北路291号佳华商场人民北店1层,114.020757,22.655037,广东省,深圳市,龙华区,3.5,34.00,0755-28117994;4009200715,http://store.is.autonavi.com/showpic/957b7c5af0e05c44565886445c3705b5,http://store.is.autonavi.com/showpic/fb141fafba897b1ca4d9085ee09125a2,http://store.is.autonavi.com/showpic/cf64ea8e22533b4bba864a3b10c322fb
B02F305DDY,肯德基(招商店),餐饮服务;快餐厅;肯德基,蛇口公园路44号,113.925127,22.489691,广东省,深圳市,南山区,3.5,17.00,0755-26827840;4009200715,http://store.is.autonavi.com/showpic/0646c7d15e4bde6c55719bfc238f0488,http://store.is.autonavi.com/showpic/9df9cfaca74c0ff18a38e8a7abbf957d,http://store.is.autonavi.com/showpic/881c3e1adadd0de058799f5cc47fe819
B02F37WC9K,麦当劳(金田二餐厅),餐饮服务;快餐厅;麦当劳,金田路3037号金中环国际商务大厦B1层,114.062599,22.534288,广东省,深圳市,福田区,3.5,21.00,0755-82521287,http://store.is.autonavi.com/showpic/0b7b2d2ada04dbeb45b89fa775a66ebf,http://store.is.autonavi.com/showpic/d07e8b9e9fc78a3dc17ef9bba5b195bc,http://store.is.autonavi.com/showpic/d648efb030f16a8d84b9693544cfeb77
B02F37VI8T,肯德基(如意店),餐饮服务;快餐厅;肯德基,石岩大道河滨南路佳华豪苑1层,113.939283,22.676775,广东省,深圳市,宝安区,3.5,20.00,0755-27600707;0755-27600880;4008823823,http://store.is.autonavi.com/showpic/23107a49f964cc42f41a9c790044e382,http://store.is.autonavi.com/showpic/807294cbf8e4e92067d5fdab4ab2e131,http://store.is.autonavi.com/showpic/3c49f12c310a0f1fb4594316d1a0fe7d
B02F37SCCV,肯德基(金田店),餐饮服务;快餐厅;肯德基,福民路9号福民佳园1楼(金田路口),114.065416,22.523040,广东省,深圳市,福田区,3.5,27.00,0755-88307106;4009200715;0755-88307107,http://store.is.autonavi.com/showpic/3d178453714cb6feffa1f5ec00328719,http://store.is.autonavi.com/showpic/17066e47225c5e4f0c7eba1488231d37,http://store.is.autonavi.com/showpic/fceedc3b3d43bfc02fff0aa7016f8f86
B02F37VVGB,真功夫(观兰店),餐饮服务;快餐厅;快餐厅,观澜大道333-345号吉盛广场万佳福1楼,114.055474,22.715974,广东省,深圳市,龙华区,3.5,24.00,4006927927;0755-28031056;0755-28081552,http://store.is.autonavi.com/showpic/62c9622166acc9d082adcc081871e376,http://store.is.autonavi.com/showpic/4f38eb04ecb9ee6811f9236711208516,http://store.is.autonavi.com/showpic/e8d3f6c050799a4a5f69daa647a050fc
B02F37V9ZF,肯德基(西丽店),餐饮服务;快餐厅;肯德基,西丽街道沙河西路与留仙大道交汇处天虹商场1层,113.955483,22.581234,广东省,深圳市,南山区,3.5,24.00,0755-86150847;0755-86150846,http://store.is.autonavi.com/showpic/0646c7d15e4bde6c55719bfc238f0488,http://store.is.autonavi.com/showpic/17066e47225c5e4f0c7eba1488231d37,http://store.is.autonavi.com/showpic/282bdf06e156007d31ecdc86a174190a
B02F306M7W,麦当劳(翠竹店),餐饮服务;快餐厅;麦当劳,翠竹路1055号华丽苑1层,114.129576,22.559891,广东省,深圳市,罗湖区,3.5,31.00,0755-25626992;4008517517,http://store.is.autonavi.com/showpic/0b7b2d2ada04dbeb45b89fa775a66ebf,http://store.is.autonavi.com/showpic/0e9a94b69dc247a60b45e8820ad88c8f,http://store.is.autonavi.com/showpic/36ca27a558411cc36130346ab0e1eee9
B02F38SXBW,汉堡王(绿景香颂店),餐饮服务;快餐厅;快餐厅,民治大道528号佐阾香颂购物中心F1层L1(09、29),114.037052,22.630851,广东省,深圳市,龙华区,4.0,29.00,0755-23578428,http://store.is.autonavi.com/showpic/559223cca310e499fdb55451,http://store.is.autonavi.com/showpic/327f150bf9a9957059bd030ee1af6c03,http://store.is.autonavi.com/showpic/748fa283540ebf3960c677a4d656eaaa
B02F38SPVO,汉堡王(深圳龙岗宝能分店),餐饮服务;快餐厅;快餐厅,建设路28号宝能城市广场L1-61、L1-62,114.248229,22.724300,广东省,深圳市,龙岗区,4.0,28.00,0755-36993289,http://store.is.autonavi.com/showpic/d1cb4b3856fd07f496eb4c7266d454fe,http://store.is.autonavi.com/showpic/358006e58860dff093c483449ac93f1c,http://store.is.autonavi.com/showpic/feba081afd9d460aca619ee0490eb0ff
B02F38SE4X,汉堡王(深圳金丰城分店),餐饮服务;快餐厅;快餐厅,深南东路5015金丰城大厦B1层,114.109613,22.541450,广东省,深圳市,罗湖区,4.8,26.00,0755-82461081,http://store.is.autonavi.com/showpic/f95a93f2327372a70794a58b370b7928,http://store.is.autonavi.com/showpic/e5ad5f0f1f39cf590950750ad578f5ab,http://store.is.autonavi.com/showpic/7b07edd12dfe9ba38ff988bab002e485
B02F37TO5M,真功夫(景田店),餐饮服务;快餐厅;快餐厅,景田路77号擎天华庭1层,114.044580,22.551331,广东省,深圳市,福田区,3.5,29.00,0755-83056433,http://store.is.autonavi.com/showpic/f1cfcc92da91bcf94c43aeee8485e734,http://store.is.autonavi.com/showpic/b5067362a9dd398540d11c283ca69571,http://store.is.autonavi.com/showpic/7f42ffb24a6bcf1c9019ff0b44787e84
B02F30AC0S,乡村发现(梅林店),餐饮服务;中餐厅;湖南菜(湘菜),梅华路8-5号,114.059701,22.564807,广东省,深圳市,福田区,3.5,43.00,0755-83151878;15019426386,http://store.is.autonavi.com/showpic/bb7ea88725bb9c7ea4db0ff949cd8d9b,http://store.is.autonavi.com/showpic/b917d19fc9af53975c2e484c67345cae,http://store.is.autonavi.com/showpic/30d016f82f5bdfd096086aa4abd64eda
B02F306JVI,麦当劳(松园路分店),餐饮服务;快餐厅;麦当劳,松园路鸿翔花园2栋1层103号,114.107299,22.553486,广东省,深圳市,罗湖区,3.5,26.00,0755-22153044;0755-28214629;4008517517,http://store.is.autonavi.com/showpic/0b7b2d2ada04dbeb45b89fa775a66ebf,http://store.is.autonavi.com/showpic/36ca27a558411cc36130346ab0e1eee9,http://store.is.autonavi.com/showpic/5a0ce0b96fc732b91533e86d364993e5
B02F38TEUB,麻辣派对(CITY花园城北区),餐饮服务;中餐厅;四川菜(川菜),南海大道花园城商业中心L1-130号,113.923806,22.502306,广东省,深圳市,南山区,3.5,85.00,0755-86359593;0755-26838693,http://store.is.autonavi.com/showpic/d4eca356e84d8c1dd864ad726ba3acff,http://store.is.autonavi.com/showpic/32121daed52aa129178e4902dfa43a7f,http://store.is.autonavi.com/showpic/f33ea0916cffa24ef6120eb29e058de0
B02F38J01J,福鑫记猪肚鸡(龙岗店),餐饮服务;中餐厅;中餐厅,吉祥路140-146号,114.238805,22.723939,广东省,深圳市,龙岗区,4.0,119.00,0755-89988012,http://store.is.autonavi.com/showpic/8fb8a857fda1ff020464ff042d0543f5,http://store.is.autonavi.com/showpic/b9bfef43342bdaab01f250f36faccdc3,http://store.is.autonavi.com/showpic/b80f773156cd049a62550b9e2e190dac
B02F37WKXP,小肥羊火锅(和平路店),餐饮服务;中餐厅;火锅店,龙华街道和平东路金銮时代大厦2层203,114.030386,22.656812,广东省,深圳市,龙华区,4.0,85.00,0755-28146177;0755-21238569;0755-29474501,http://store.is.autonavi.com/showpic/5ddb8ff85fa33c4ebc583f562fbe5a30,http://store.is.autonavi.com/showpic/b098362e313a56b5e22a4f56439f697f,http://store.is.autonavi.com/showpic/fbe91aca9d84cd271e3bd914f5df11f9
B02F37VI9Y,兰州牛肉拉面(塘头又一村东),餐饮服务;中餐厅;清真菜馆,白石洲塘头村五坊37号(塘头又一村东),113.921329,22.651393,广东省,深圳市,宝安区,5.0,30.00,0755-85200500,http://store.is.autonavi.com/showpic/d326f5ee75d9236691823212a7296534,http://store.is.autonavi.com/showpic/3cea2cc5a84548382588bec731ecdd3d,http://store.is.autonavi.com/showpic/4a7fa4d4c1b28f9f83b242abfb4a52e4
B02F37UFBD,千味涮(海岸城购物中心东区),餐饮服务;中餐厅;火锅店,文心五路33号海岸城4层402号,113.935826,22.516798,广东省,深圳市,南山区,4.0,76.00,0755-21674469,http://store.is.autonavi.com/showpic/c56e7a001ba59dbc1cf4ba11d6760b36,http://store.is.autonavi.com/showpic/0c9ae38eaca9a2f00af74c6327b20cd1,http://store.is.autonavi.com/showpic/4c9c53a1e62130a51278486d28f3b510
B02F37UEJM,嘉旺(竹子林店),餐饮服务;快餐厅;快餐厅,深南西路竹子林益华综合楼B栋1楼1号,114.013318,22.535626,广东省,深圳市,福田区,3.5,20.00,0755-83711878,http://store.is.autonavi.com/showpic/98dc24fbec407d964bac4044c6583bd4,http://store.is.autonavi.com/showpic/2bda84625f33c31215494982a39a4d36,http://store.is.autonavi.com/showpic/89b2a81a896543333b0ad282a6eab567
B02F37WEDB,肯德基(岁宝百货),餐饮服务;快餐厅;肯德基,沙井街道民主大道濠景城东座岁宝百货1层102号,113.792793,22.736144,广东省,深圳市,宝安区,3.5,30.00,0755-29353370;0755-29353663,http://store.is.autonavi.com/showpic/464ce93408345798b1545b8b9299d141,http://store.is.autonavi.com/showpic/5f7209470cab9b8d540be872e79198b5,http://store.is.autonavi.com/showpic/749636ead88dce207476df47909f4fe7
B02F37VI62,肯德基(白金假日店),餐饮服务;快餐厅;肯德基,海城路白金假日商业广场人人乐1层,113.869111,22.567529,广东省,深圳市,宝安区,3.5,32.00,0755-29611459;0755-27942781,http://store.is.autonavi.com/showpic/cf64ea8e22533b4bba864a3b10c322fb,http://store.is.autonavi.com/showpic/be222185c3488c9b86767be7ebddf752,http://store.is.autonavi.com/showpic/c8226d29ce4bce93c82feeaed36b2be7
B02F37ULIZ,嘉旺(华联分店),餐饮服务;快餐厅;快餐厅,深南中路2008号华联大厦1楼西侧(近科学馆地铁站),114.093886,22.541292,广东省,深圳市,福田区,3.5,20.00,0755-83667606;0755-83668578,http://store.is.autonavi.com/showpic/274c18e51400ab12216b84e7c5a65405,http://store.is.autonavi.com/showpic/5331e18d9da8f8e0006e3d8193c8cba9,http://store.is.autonavi.com/showpic/98b117da6451583c32f659f3e488fd25
B02F37UKN0,麦当劳(天安数码城分店),餐饮服务;快餐厅;麦当劳,泰然四路天安数码时代大厦1层,114.031591,22.535427,广东省,深圳市,福田区,3.5,27.00,0755-25334507,http://store.is.autonavi.com/showpic/0b7b2d2ada04dbeb45b89fa775a66ebf,http://store.is.autonavi.com/showpic/a4f16aca35110522285f184e17a9545d,http://store.is.autonavi.com/showpic/2fb1dd3670d4be244772210beed4eb38
B02F37SCCQ,肯德基(世界之窗店),餐饮服务;快餐厅;肯德基,深南大道9037-3号,113.974593,22.535591,广东省,深圳市,南山区,4.6,30.00,0755-26923780,http://store.is.autonavi.com/showpic/55a85891a310f8cad7c676ee,http://store.is.autonavi.com/showpic/a51f64c31ec13ad3068a877e78c8595a,http://store.is.autonavi.com/showpic/326100e018208b6970d8e392bcaaa161
B02F37VWIX,平常人家(商报路),餐饮服务;中餐厅;中餐厅,商报路景田医院东侧天健创业大厦1层103,114.042752,22.549563,广东省,深圳市,福田区,3.0,40.00,0755-83500333,http://store.is.autonavi.com/showpic/63877f912b8f8938b41c50948fe33bc6,http://store.is.autonavi.com/showpic/c9812dc28f09aa586494288970e233ae,http://store.is.autonavi.com/showpic/6a5f2f0d3dac8ead404134e58ea70e10
B02F37VW9V,肯德基(新天地店),餐饮服务;快餐厅;肯德基,宝安北路1004号中洲新天地商场1层,114.109333,22.558310,广东省,深圳市,罗湖区,3.5,28.00,0755-25984787,http://store.is.autonavi.com/showpic/9f79ad8414971d257f6567517e9cb12d,http://store.is.autonavi.com/showpic/5fc8c9d03854cb4384405716081e6970,http://store.is.autonavi.com/showpic/133b267b33ad244b9d593b512eb24d26
B02F37VJKY,柴火饭店(公明店),餐饮服务;中餐厅;中餐厅,公明镇宝明路(宝明城酒店对面),113.901626,22.774410,广东省,深圳市,宝安区,3.5,41.00,0755-27555640,http://store.is.autonavi.com/showpic/e5bdabd4b94dabbcedcdd67561fb4432,http://store.is.autonavi.com/showpic/cd456f735a0168b205ae04a16cd8414c,http://store.is.autonavi.com/showpic/a5fd9980c904b2ee3ef22a3c53a1606f
B02F37VAR1,麦当劳(泰宁分店),餐饮服务;快餐厅;麦当劳,爱国路泰宁花园1层,114.140920,22.564837,广东省,深圳市,罗湖区,3.5,31.00,0755-22362187;4008517517,http://store.is.autonavi.com/showpic/0b7b2d2ada04dbeb45b89fa775a66ebf,http://store.is.autonavi.com/showpic/0e9a94b69dc247a60b45e8820ad88c8f,http://store.is.autonavi.com/showpic/012e3dcb2d6dd7200b8e6a7417c79108
B02F306J93,必胜客(梅林店),餐饮服务;快餐厅;必胜客,梅林路梅林一村家乐福超市1层,114.041002,22.565721,广东省,深圳市,福田区,4.0,59.00,0755-83538335;0755-83538099,http://store.is.autonavi.com/showpic/d5ab8739f3a3d82e47ca0ec7dfb8cca1,http://store.is.autonavi.com/showpic/b83b7ac6b2449d3c877bb1ec06becfaa,http://store.is.autonavi.com/showpic/ef2334be83f268c4b06c25dd69e03446
B02F37WFX2,雨·花(君胜百货),餐饮服务;外国餐厅;西餐厅(综合风味),宝民二路111号港隆城购物中心1层103号,113.881515,22.581539,广东省,深圳市,宝安区,3.5,100.00,0755-33819666,http://store.is.autonavi.com/showpic/8e6ddd22b145c8a8fe8e934d698621ad,http://store.is.autonavi.com/showpic/652cd53e75646dcfbcc4cfda1edbd918,http://store.is.autonavi.com/showpic/0ae41fe1b0cd447d5aa5606f5bb5c6fa
B02F37VIJ3,麦当劳(福永二店),餐饮服务;快餐厅;麦当劳,福永镇福永大道怀德城市花园1层,113.819665,22.668937,广东省,深圳市,宝安区,3.5,28.00,0755-27381117;0755-27330479;4008517517,http://store.is.autonavi.com/showpic/0b7b2d2ada04dbeb45b89fa775a66ebf,http://store.is.autonavi.com/showpic/6bf6f9aa305c62235d4f5e7fa5916861,http://store.is.autonavi.com/showpic/36ca27a558411cc36130346ab0e1eee9
B02F308VK0,必胜客(东门店),餐饮服务;快餐厅;必胜客,东门中路2071号南海中心2层,114.121703,22.548055,广东省,深圳市,罗湖区,4.0,69.00,0755-82186001,http://store.is.autonavi.com/showpic/be05c029c3953593f755386700b55a5c,http://store.is.autonavi.com/showpic/e2602fa86c1870489f95805339582780,http://store.is.autonavi.com/showpic/60893e07d8b56de8943cfe91964f5f0f
B02F306LC8,肯德基(岗厦店),餐饮服务;快餐厅;肯德基,彩田路东方新天地广场1层102B,114.068301,22.538517,广东省,深圳市,福田区,3.5,22.00,0755-23610892,http://store.is.autonavi.com/showpic/fceedc3b3d43bfc02fff0aa7016f8f86,http://store.is.autonavi.com/showpic/0646c7d15e4bde6c55719bfc238f0488,http://store.is.autonavi.com/showpic/17066e47225c5e4f0c7eba1488231d37
B02F37W6IS,中国兰州拉面(创业路店),餐饮服务;中餐厅;清真菜馆,创业路2052-1号,113.931372,22.515317,广东省,深圳市,南山区,3.5,13.00,13049400867;15960040062,http://store.is.autonavi.com/showpic/7e7850a348f5c4a111a911aef9c8d2fc,http://store.is.autonavi.com/showpic/56284c64748bb2d73a23a5ac642f8e25,http://store.is.autonavi.com/showpic/db6caf874cc4b35d5cd9b20debcdaf21
B02F37VM2W,麦当劳(沃尔玛店),餐饮服务;快餐厅;麦当劳,布吉镇深惠公路布吉沃尔玛超级市场1-2层,114.137344,22.611880,广东省,深圳市,龙岗区,3.5,26.00,0755-84739549;0755-84739547;4008517517,http://store.is.autonavi.com/showpic/0b7b2d2ada04dbeb45b89fa775a66ebf,http://store.is.autonavi.com/showpic/0e9a94b69dc247a60b45e8820ad88c8f,http://store.is.autonavi.com/showpic/b54be2ad097061e6ae5a59fb71764b4c
B02F37VJ92,肯德基(民联购物广场店),餐饮服务;快餐厅;肯德基,民生大道71号,113.908430,22.781557,广东省,深圳市,宝安区,3.5,27.00,0755-27155962;0755-27155979;4009200715,http://store.is.autonavi.com/showpic/3cbe6a6c8d4757bcdd163106e1e93dbe,http://store.is.autonavi.com/showpic/4af4c07a660f08818802fdda8838098f,http://store.is.autonavi.com/showpic/39debce90ac9a194c06a91cae564beb4
B02F37SCCE,肯德基(花好园店),餐饮服务;快餐厅;肯德基,东涌路花好园岁宝百货1层,114.025606,22.528414,广东省,深圳市,福田区,4.0,24.00,0755-88373871;0755-88373872;4009200715,http://store.is.autonavi.com/showpic/cf64ea8e22533b4bba864a3b10c322fb,http://store.is.autonavi.com/showpic/dddaa43d6a0b860f48cdaf7cc37b5cef,http://store.is.autonavi.com/showpic/7af9f3ecdacba02b18f7f5d7fb487892
B02F305V1V,嘉旺(沙河分店),餐饮服务;快餐厅;快餐厅,下白石2坊,113.969061,22.540639,广东省,深圳市,南山区,3.5,24.00,0755-86657575;0755-86657028,http://store.is.autonavi.com/showpic/f006d9fc6852947a74113df4a8f3c5c0,http://store.is.autonavi.com/showpic/3d4659b95fecd93f582629af7d4479c2,http://store.is.autonavi.com/showpic/14e6ade8cfdc49fb91aeed3bdc3a2d49
B02F301085,天天海鲜大酒楼,餐饮服务;中餐厅;海鲜酒楼,福强路2008-2号,114.063819,22.517586,广东省,深圳市,福田区,4.0,45.00,0755-83816333;0755-83816223,http://store.is.autonavi.com/showpic/ff5c209f1f3445afdd4dc19bc6181f91,http://store.is.autonavi.com/showpic/68e2ab33f9ab474a170d15e551f8d0ed,http://store.is.autonavi.com/showpic/151ba8241b60e7e55d95a0f77240f7be
B02F38JBR9,阿香米线(百士达店),餐饮服务;快餐厅;快餐厅,东湖街道太宁路百仕达花园第四期东郡商业楼地面一层及二层JUSCO东湖店二楼L2-18号商铺,114.138750,22.569460,广东省,深圳市,罗湖区,3.5,30.00,18820973275,http://store.is.autonavi.com/showpic/db369deeec845ce09f3ea93d0ea8f9e9,http://store.is.autonavi.com/showpic/64c4c68faec453a094427d4e64f542b7,http://store.is.autonavi.com/showpic/ed8bda368f5aa460cc1834db8e056ead
B02F37VPUE,肯德基(松岗店),餐饮服务;快餐厅;肯德基,广深路293号佳华商场1层,113.847153,22.768216,广东省,深圳市,宝安区,3.5,23.00,0755-27713746;0755-27716497,http://store.is.autonavi.com/showpic/4af4c07a660f08818802fdda8838098f,http://store.is.autonavi.com/showpic/39debce90ac9a194c06a91cae564beb4,http://store.is.autonavi.com/showpic/d2ef4e3612f2910b0b8dbe1a672b4d40
B02F38JHSO,黄记煌三汁焖锅,餐饮服务;中餐厅;中餐厅,民治大道328号嘉熙业广场写字楼5层501-4号,114.039858,22.623133,广东省,深圳市,龙华区,3.5,72.00,0755-23353776,http://store.is.autonavi.com/showpic/e2a2333ba48c448a5d639ba71a7a7e0e,http://store.is.autonavi.com/showpic/9b0523bfc6327bed9ad9a51fcd5c97d2,http://store.is.autonavi.com/showpic/60de99031a43d57ad3fae07256e174a2
B02F37VKO6,肯德基(民乐餐厅),餐饮服务;快餐厅;肯德基,民治街道民乐村兴万和购物广场1层,114.050627,22.600594,广东省,深圳市,龙华区,3.5,26.00,0755-28096687,http://store.is.autonavi.com/showpic/464ce93408345798b1545b8b9299d141,http://store.is.autonavi.com/showpic/bd1f00d2f7aa67e9fe4bc6da724fb732,http://store.is.autonavi.com/showpic/f143cf0d9366090b2afea26f5dfc7f25
B02F3062G8,嘉旺(桂园分店),餐饮服务;快餐厅;快餐厅,桂园路79号一楼,114.112680,22.545867,广东省,深圳市,罗湖区,3.5,23.00,0755-25580338;0755-25574939,http://store.is.autonavi.com/showpic/e335b1331ec123dbd8043c75c3f6f22b,http://store.is.autonavi.com/showpic/a4899ece25e20877f699d3e8f24535b2,http://store.is.autonavi.com/showpic/eb36cc67ae88568ddbdf886cd1181f46
B02F38TSIU,雅山(凤凰大厦店),餐饮服务;快餐厅;快餐厅,深南大道2008中国凤凰大厦3栋2层210号,114.064843,22.541638,广东省,深圳市,福田区,4.6,25.00,0755-33138214;0755-33138834,http://store.is.autonavi.com/showpic/e5c299be513bab0b72c16697122efa0a,http://store.is.autonavi.com/showpic/d29db8c71d578f2967dad7e35c24d7a7,http://store.is.autonavi.com/showpic/2189cb0aede5714b9a637c8f05766b2e
B02F38N5AK,绿茵阁(红桂路店),餐饮服务;外国餐厅;外国餐厅,红桂路2086号长城大酒店1楼,114.106910,22.549941,广东省,深圳市,罗湖区,3.5,65.00,0755-25583369,http://store.is.autonavi.com/showpic/d7d09c75a6280af7d8882235468948e3,http://store.is.autonavi.com/showpic/743c0dc2808855c5ae37737e0132d9e5,http://store.is.autonavi.com/showpic/c3d88e950b72450d8f805602e0333f7b
B02F37VP70,麦当劳(龙岗天虹分店),餐饮服务;快餐厅;麦当劳,龙岗镇深惠公路旁龙盈泰商业中心1层,114.277899,22.728433,广东省,深圳市,龙岗区,3.5,36.00,0755-84868469;4008517517;0755-84801469,http://store.is.autonavi.com/showpic/0b7b2d2ada04dbeb45b89fa775a66ebf,http://store.is.autonavi.com/showpic/36ca27a558411cc36130346ab0e1eee9,http://store.is.autonavi.com/showpic/9a91c33e1db6bee3d5c562984a6ca810
B02F305AWZ,麦当劳(大梅沙店),餐饮服务;快餐厅;麦当劳,盐葵路98号雅兰酒店2号楼1楼,114.308416,22.594863,广东省,深圳市,盐田区,3.5,27.00,0755-25061515,http://store.is.autonavi.com/showpic/0b7b2d2ada04dbeb45b89fa775a66ebf,http://store.is.autonavi.com/showpic/36ca27a558411cc36130346ab0e1eee9,http://store.is.autonavi.com/showpic/4ab18b7c44d30502e82f86d5861c776c
B02F37W3XK,夜朗国(梅林分店),餐饮服务;中餐厅;云贵菜,梅华路207号安通大厦1层02-03号铺(近新州路),114.045522,22.563502,广东省,深圳市,福田区,4.0,87.00,0755-83183378;0755-86278688,http://store.is.autonavi.com/showpic/6ef42804d30b5a29a7dc34d6e1450dd6,http://store.is.autonavi.com/showpic/b19e615cff1491b40fa96e4f81520faa,http://store.is.autonavi.com/showpic/f379c60a9bf763f5904abe5cba00a78f
B02F37TT06,肯德基(平湖店),餐饮服务;快餐厅;肯德基,平湖镇守珍街53号1层,114.129890,22.694352,广东省,深圳市,龙岗区,3.5,26.00,0755-28841018;0755-28852115,http://store.is.autonavi.com/showpic/4af4c07a660f08818802fdda8838098f,http://store.is.autonavi.com/showpic/02194733bb46949d7b1be8ccafccd2f2,http://store.is.autonavi.com/showpic/7845483b12e551d6d7ac9218f764b275
B02F306GAR,渔乡米坊(深圳东园店),餐饮服务;中餐厅;中餐厅,东园路42号(八合里海记东园店旁边),114.101816,22.537654,广东省,深圳市,福田区,3.5,31.00,0755-82063696,http://store.is.autonavi.com/showpic/afa545e4f42af86de7a23ad041cd042e,http://store.is.autonavi.com/showpic/bb535661c344337644e5c1ce868920fa,http://store.is.autonavi.com/showpic/8409b7ed3b84521146436d85f30d4b24
B02F305A8G,麦当劳(公明建设路分店),餐饮服务;快餐厅;麦当劳,公明办事处建设路56号,113.889918,22.782265,广东省,深圳市,宝安区,3.0,26.00,0755-23196606,http://store.is.autonavi.com/showpic/0b7b2d2ada04dbeb45b89fa775a66ebf,http://store.is.autonavi.com/showpic/a3bbeb0092e3f18d5ba7a6b4097b13da,http://store.is.autonavi.com/showpic/4469edb7382e8e5b22353910b33a6821
B02F38TDLY,沙县小吃(自由路),餐饮服务;快餐厅;快餐厅,49区自由路140号,113.888517,22.570293,广东省,深圳市,宝安区,3.5,22.00,15813726586,http://store.is.autonavi.com/showpic/829322a8a337f8bdc8f2ced07ab1fa4c,http://store.is.autonavi.com/showpic/dcf3433a4d9a30ba0640d3c10417b5e3,http://store.is.autonavi.com/showpic/070cd075e58f39cf59e943c1e13ae9ab
B02F38TADQ,沙县小吃(创艺路),餐饮服务;中餐厅;特色/地方风味餐厅,龙华村高峰社区创艺路10号,114.004192,22.659908,广东省,深圳市,龙华区,3.5,13.00,13950931811,http://store.is.autonavi.com/showpic/55ba1646a310989dd8c1c81b,http://store.is.autonavi.com/showpic/55ba1646a310989dd8c1c81d,http://store.is.autonavi.com/showpic/a9ab58b9d00c5abb39dc261e8e83659b
B02F38SQOL,沙县小吃(将石工业大道),餐饮服务;中餐厅;特色/地方风味餐厅,光明新区公明将石街道大围沙河工业区旁信豪工业园B1,113.915528,22.765089,广东省,深圳市,宝安区,3.5,26.00,13850995103,http://store.is.autonavi.com/showpic/10e9043691cdab755aa30657d2234b6b,http://store.is.autonavi.com/showpic/2ed86df4bb71e4a6f4877b91531e340f,http://store.is.autonavi.com/showpic/b54be2ad097061e6ae5a59fb71764b4c
B02F38SNEG,沙县小吃(洁玉街),餐饮服务;中餐厅;特色/地方风味餐厅,龙华新区金盈新村16栋506-金富酒店对面,114.008858,22.635113,广东省,深圳市,龙华区,3.5,27.00,0755-27155962;0755-27155979;4009200715,http://store.is.autonavi.com/showpic/cbc92b0fb41694d4b613c3b9f69e4bab,http://store.is.autonavi.com/showpic/4af4c07a660f08818802fdda8838098f,http://store.is.autonavi.com/showpic/39debce90ac9a194c06a91cae564beb4
B02F38SLHY,沙县小吃(翠荫路),餐饮服务;中餐厅;特色/地方风味餐厅,翠荫路东50米,114.130816,22.587018,广东省,深圳市,龙岗区,4.0,24.00,0755-89367845;13147096030,http://store.is.autonavi.com/showpic/2a8f37988ff7485df6e5c9cba2890386,http://store.is.autonavi.com/showpic/dddaa43d6a0b860f48cdaf7cc37b5cef,http://store.is.autonavi.com/showpic/7af9f3ecdacba02b18f7f5d7fb487892
B02F38OWVY,沙县小吃(松坪山路),餐饮服务;中餐厅;特色/地方风味餐厅,松坪山路7-2号,113.951488,22.557402,广东省,深圳市,南山区,5.0,15.00,15220222538,http://store.is.autonavi.com/showpic/f4767b33136358fbe9c6b5f3c19920a3,http://store.is.autonavi.com/showpic/14420d054586cdceae2edeafaf71d051,http://store.is.autonavi.com/showpic/291e9fda45152275afabf76ac82ee9ea
B02F38OL18,沙县小吃(固戍社区南昌第二新村西南),餐饮服务;中餐厅;特色/地方风味餐厅,西乡街道固戍航城大道安乐工业区B1栋,113.837014,22.599661,广东省,深圳市,宝安区,4.0,45.00,0755-83816333;0755-83816223,http://store.is.autonavi.com/showpic/29c3327f4136e6f21c94badf4e52f139,http://store.is.autonavi.com/showpic/27e5b481d129fbef561669d4203d85eb,http://store.is.autonavi.com/showpic/151ba8241b60e7e55d95a0f77240f7be
B02F38N62E,沙县小吃(天地成办公楼西),餐饮服务;中餐厅;特色/地方风味餐厅,新光路丽苑二村小区1楼,113.951927,22.577496,广东省,深圳市,南山区,3.5,30.00,18820973275,http://store.is.autonavi.com/showpic/d756ab12a9a7bf0c96073015af8f81e6,http://store.is.autonavi.com/showpic/64c4c68faec453a094427d4e64f542b7,http://store.is.autonavi.com/showpic/ed8bda368f5aa460cc1834db8e056ead
B02F38JAC0,艾薯(星河·Coco Park),餐饮服务;快餐厅;快餐厅,福华三路268号星河Coco ParkB1层,114.053483,22.533556,广东省,深圳市,福田区,4.0,44.00,0755-83170291,http://store.is.autonavi.com/showpic/2d70fcc1bef96d6daa0169520d1f90bf,http://store.is.autonavi.com/showpic/4839044b0c6d7b3a8b237c6aaa15d19b,http://store.is.autonavi.com/showpic/81d867dc0b9cd3295eb4624dae3aad61
B02F37T8TY,必胜客(鸿展店),餐饮服务;快餐厅;必胜客,解放路1008号鸿展广场2-3层,114.119399,22.545843,广东省,深圳市,罗湖区,3.5,60.00,0755-82359748;0755-82359753,http://store.is.autonavi.com/showpic/aaa12491c65b7cc5c0ade96b79362d89,http://store.is.autonavi.com/showpic/6d535f447921ea8fdf190559b7416801,http://store.is.autonavi.com/showpic/b5a0b8e68bdd4135f4a9da36dc1b0fee
B02F37U7H1,三湘人家(益华店),餐饮服务;中餐厅;湖南菜(湘菜),竹子林益华路8号益华大厦1楼(东方银座酒店后面),114.013339,22.535499,广东省,深圳市,福田区,3.5,53.00,0755-83187988;0755-83187838,http://store.is.autonavi.com/showpic/fe273f74122eac7839b53e98c7986374,http://store.is.autonavi.com/showpic/3c368e53bd40ebf3294f7cd91b9df70e,http://store.is.autonavi.com/showpic/94c4fc0cff74544ccdd1836413c4e0ce
B02F307HZX,嘉旺(红宝分店),餐饮服务;快餐厅;快餐厅,红宝路145号1楼(环宇大酒店后面),114.105979,22.544649,广东省,深圳市,罗湖区,3.5,24.00,0755-25588118,http://store.is.autonavi.com/showpic/977697232e3721214f837eb3ab96dcfd,http://store.is.autonavi.com/showpic/ec7d8d034f46ac3e0bdc1f3921f426b0,http://store.is.autonavi.com/showpic/f743e7e58bb3f0cedfb6aa8ae35f0fe8
B02F37WJG4,小肥羊火锅(深圳百鸽路店),餐饮服务;中餐厅;火锅店,百鸽路康之乐购物广场旁,114.124552,22.593286,广东省,深圳市,龙岗区,3.5,70.00,0755-89368010,http://store.is.autonavi.com/showpic/f6bce2636f2d77c4167098d1d52f15dd,http://store.is.autonavi.com/showpic/9c7d6289178964cd337d6f6c0b81341d,http://store.is.autonavi.com/showpic/32ddacdefedd5f0ac5b654a2a8afb6d5
B02F37VMKA,肯德基(南岭餐厅),餐饮服务;快餐厅;肯德基,南湾街道南岭村万家乐百货1层,114.150870,22.611423,广东省,深圳市,龙岗区,3.5,24.00,0755-28702376;0755-84030621,http://store.is.autonavi.com/showpic/cf64ea8e22533b4bba864a3b10c322fb,http://store.is.autonavi.com/showpic/d2ef4e3612f2910b0b8dbe1a672b4d40,http://store.is.autonavi.com/showpic/881c3e1adadd0de058799f5cc47fe819
B02F37UJB4,嘉旺(南油店),餐饮服务;快餐厅;快餐厅,南海大道2128-8号,113.925461,22.508067,广东省,深圳市,南山区,3.0,20.00,0755-26644708,http://store.is.autonavi.com/showpic/1f5ce7e83d1e2384cb31afd1a7cc5789,http://store.is.autonavi.com/showpic/fe918dea1f920f7a82b7c318152af9ae,http://store.is.autonavi.com/showpic/2b56c5fc91d3398b8c233574dfcd4b21
B02F306GIV,麦当劳(梅华店),餐饮服务;快餐厅;麦当劳,梅华路梅沁楼1层西侧,114.051541,22.564833,广东省,深圳市,福田区,3.5,19.00,0755-83109380;4008517517,http://store.is.autonavi.com/showpic/0b7b2d2ada04dbeb45b89fa775a66ebf,http://store.is.autonavi.com/showpic/6632a04521400ca642fda3ee3ed97f66,http://store.is.autonavi.com/showpic/a85f48cb1f02f5e01aed7276db24a1b2
B02F38SJ7E,正宗兰州牛肉拉面(木棉路),餐饮服务;中餐厅;清真菜馆,木棉路24-1号,114.129093,22.604468,广东省,深圳市,龙岗区,4.0,87.00,0755-83183378;0755-86278688,http://store.is.autonavi.com/showpic/fc352f718780d97a4a5ecb7d4db86b7a,http://store.is.autonavi.com/showpic/b19e615cff1491b40fa96e4f81520faa,http://store.is.autonavi.com/showpic/f379c60a9bf763f5904abe5cba00a78f
B02F38OEVR,周黑鸭(港澳城华强北路),餐饮服务;中餐厅;湖北菜(鄂菜),华强北路3003号港澳城(华强北路)F1层,114.086316,22.546945,广东省,深圳市,福田区,4.0,24.00,0755-28841018;0755-28852115,http://store.is.autonavi.com/showpic/aaf9290d2586809f25469f15684fdaaf,http://store.is.autonavi.com/showpic/b394e491da70e8b9bf07d6aa003a1921,http://store.is.autonavi.com/showpic/91b4798a16900960f690b2af3b1dd27a
B02F38N5RD,兰州正宗牛肉拉面(上合路店),餐饮服务;中餐厅;清真菜馆,上川路231号,113.901678,22.580086,广东省,深圳市,宝安区,1.8,13.00,18682246913,http://store.is.autonavi.com/showpic/19ab3f625ffecdcf24c3daa05b7be02e,http://store.is.autonavi.com/showpic/8c3409d490396576f286d337e1a4c94d,http://store.is.autonavi.com/showpic/9636e9d95d1120459fe69810ac1a7a1e
B02F37W66S,肯德基(大新店),餐饮服务;快餐厅;肯德基,桃园路与前海路交汇处大新村大新前海商业中心1-2层,113.915598,22.532683,广东省,深圳市,南山区,3.5,33.00,0755-86034065;4008823823;0755-26717532,http://store.is.autonavi.com/showpic/cf64ea8e22533b4bba864a3b10c322fb,http://store.is.autonavi.com/showpic/4af4c07a660f08818802fdda8838098f,http://store.is.autonavi.com/showpic/7845483b12e551d6d7ac9218f764b275
B02F37VKHM,肯德基(新湖店),餐饮服务;快餐厅;肯德基,新湖路与罗田路交汇处泰华君逸世家1-2层,113.881351,22.561149,广东省,深圳市,宝安区,3.5,24.00,0755-21500253;0755-21500853,http://store.is.autonavi.com/showpic/53c2ae5e309d6094db949361735b3683,http://store.is.autonavi.com/showpic/f13c4b6d5b254a4f33cbcc9c64d7d644,http://store.is.autonavi.com/showpic/23107a49f964cc42f41a9c790044e382
B02F37U8J5,肯德基(麒麟店),餐饮服务;快餐厅;肯德基,艺园路东缤纷年华小区裙楼1层,113.927939,22.542835,广东省,深圳市,南山区,3.5,27.00,0755-33229716;0755-33229715,http://store.is.autonavi.com/showpic/cf64ea8e22533b4bba864a3b10c322fb,http://store.is.autonavi.com/showpic/457eb56fee153f473f0f17ce2f0a7ba2,http://store.is.autonavi.com/showpic/0646c7d15e4bde6c55719bfc238f0488
B02F37W8QL,五谷芳乳鸽王海鲜酒楼(海世界分店),餐饮服务;中餐厅;海鲜酒楼,大梅沙盐梅路海世界1层,114.305456,22.591834,广东省,深圳市,盐田区,3.5,103.00,0755-25060582;0755-25060581,http://store.is.autonavi.com/showpic/a1014b3b4aecf853a221b06ca848ade2,http://store.is.autonavi.com/showpic/0f6cd40f61bb45ea2ddc2fef8b7d2509,http://store.is.autonavi.com/showpic/9899e06b0ffc6ada9f82064efb9ed153
B02F37VKT7,麦当劳(龙华和平东路分店),餐饮服务;快餐厅;麦当劳,和平东路富联华商贸中心大润发商场东侧一楼,114.031813,22.657901,广东省,深圳市,龙华区,3.5,21.00,0755-28113694,http://store.is.autonavi.com/showpic/0b7b2d2ada04dbeb45b89fa775a66ebf,http://store.is.autonavi.com/showpic/e2f8cd320cb09b6a81523369fa3c5d1f,http://store.is.autonavi.com/showpic/36ca27a558411cc36130346ab0e1eee9
B02F37VIS5,麦当劳(新沙路店),餐饮服务;快餐厅;麦当劳,沙井街道新沙路与中心路交汇处华润万家1层10004号,113.828142,22.728176,广东省,深圳市,宝安区,3.5,23.00,0755-27462846;0755-27288697,http://store.is.autonavi.com/showpic/0b7b2d2ada04dbeb45b89fa775a66ebf,http://store.is.autonavi.com/showpic/36ca27a558411cc36130346ab0e1eee9,http://store.is.autonavi.com/showpic/597c5d8d7f4e5de02fdbf45b1c735f3b
B02F37SCCT,肯德基(宝利豪庭店),餐饮服务;快餐厅;肯德基,松岗街道楼岗大道宝利豪庭1层,113.851487,22.763885,广东省,深圳市,宝安区,3.5,26.00,0755-81766480;0755-81766482,http://store.is.autonavi.com/showpic/17066e47225c5e4f0c7eba1488231d37,http://store.is.autonavi.com/showpic/53c2ae5e309d6094db949361735b3683,http://store.is.autonavi.com/showpic/39debce90ac9a194c06a91cae564beb4
B02F3060QF,麦当劳(新安分店),餐饮服务;快餐厅;麦当劳,建安一路64号裕宝大厦2层,113.908758,22.559275,广东省,深圳市,宝安区,3.5,29.00,0755-27754296,http://store.is.autonavi.com/showpic/0b7b2d2ada04dbeb45b89fa775a66ebf,http://store.is.autonavi.com/showpic/36ca27a558411cc36130346ab0e1eee9,http://store.is.autonavi.com/showpic/5208916f096f01b2f9ad2be70b6a6ba4
B02F38OJUR,汉釜宫(深圳店),餐饮服务;外国餐厅;韩国料理,建设东路崇尚百货龙华购物中心4层,114.030868,22.652319,广东省,深圳市,龙华区,4.2,30.00,18820973275,http://store.is.autonavi.com/showpic/55bf1888a310b481e0425b81,http://store.is.autonavi.com/showpic/64c4c68faec453a094427d4e64f542b7,http://store.is.autonavi.com/showpic/ed8bda368f5aa460cc1834db8e056ead
B02F37WFWR,麦当劳(前进路店),餐饮服务;快餐厅;麦当劳,前进二路206号(桃源居14区1栋1区104-106号),113.860988,22.616023,广东省,深圳市,宝安区,3.5,33.00,0755-27453223;0755-27452716,http://store.is.autonavi.com/showpic/0b7b2d2ada04dbeb45b89fa775a66ebf,http://store.is.autonavi.com/showpic/36ca27a558411cc36130346ab0e1eee9,http://store.is.autonavi.com/showpic/8be4fbaf34f4c410de0458792e4c4345
B02F37VJLG,肯德基(天福店),餐饮服务;快餐厅;肯德基,蚝业路4号,113.800797,22.679717,广东省,深圳市,宝安区,3.5,26.00,0755-27335281,http://store.is.autonavi.com/showpic/6e2d247199cccf317d80088098ecd462,http://store.is.autonavi.com/showpic/9df9cfaca74c0ff18a38e8a7abbf957d,http://store.is.autonavi.com/showpic/3d178453714cb6feffa1f5ec00328719
B02F37UR3P,嘉旺(八卦岭分店),餐饮服务;快餐厅;快餐厅,八卦二路27旭飞花园A栋1层,114.102486,22.558741,广东省,深圳市,福田区,3.0,17.00,0755-82260453;0755-83495669,http://store.is.autonavi.com/showpic/a168578685e739b087cc867bb51e7770,http://store.is.autonavi.com/showpic/6ed1194b9654f6c28a8e11d8779f8699,http://store.is.autonavi.com/showpic/cae2fe57ee5f627a176fe5d0b8ca00e5
B02F37WGT5,三湘人家(宝安店),餐饮服务;中餐厅;湖南菜(湘菜),翻身路294号林中杨大厦1层,113.898214,22.558714,广东省,深圳市,宝安区,3.0,52.00,0755-27889168;0755-27889222,http://store.is.autonavi.com/showpic/b5042b896c58b4d72575385f40fbea9f,http://store.is.autonavi.com/showpic/0e7c89835e4723eaeda491af6d79c727,http://store.is.autonavi.com/showpic/31be4a4ab0f5e8f38948e16d52397e48
B02F38TE4B,木屋烧烤(塘头店),餐饮服务;中餐厅;特色/地方风味餐厅,华夏路27号,113.971767,22.539531,广东省,深圳市,南山区,3.5,53.00,0755-86613379,http://store.is.autonavi.com/showpic/5cedefc048fee5401871dcb2c0574637,http://store.is.autonavi.com/showpic/71f910aaf88dc57e287a3f51ed61fd89,http://store.is.autonavi.com/showpic/9e0e72e257a674ab976325730d7a8e65
B02F37WG8W,麦当劳甜品站(宝安大道分店),餐饮服务;快餐厅;麦当劳,宝安大道与金海路交汇处金港华庭1层81-85号,113.862200,22.581319,广东省,深圳市,宝安区,3.5,24.00,0755-23711706,http://store.is.autonavi.com/showpic/0b7b2d2ada04dbeb45b89fa775a66ebf,http://store.is.autonavi.com/showpic/55ba15fea310989dd8c1bbf2,http://store.is.autonavi.com/showpic/46d83411f815f2d44281183c3c1a46f7
B02F37WDBL,二郎田鸡(盐田分店),餐饮服务;中餐厅;中餐厅,沙深路109号(沙头角宾馆对面  沙头角海关公交站旁),114.225347,22.552301,广东省,深圳市,盐田区,3.5,49.00,0755-25553678,http://store.is.autonavi.com/showpic/ca7f0d01e3d4e504ed9641f877f7e5ab,http://store.is.autonavi.com/showpic/9ea4584d28ccd197be1718fd4f3ebbf7,http://store.is.autonavi.com/showpic/fa34fc6171d8a84db0175ef331bf31e3
B02F37VOZZ,肯德基(吉祥店),餐饮服务;快餐厅;肯德基,吉祥路283号中心城愉园新苑1层,114.237931,22.720340,广东省,深圳市,龙岗区,3.5,65.00,0755-28926752;0755-28926750,http://store.is.autonavi.com/showpic/cf64ea8e22533b4bba864a3b10c322fb,http://store.is.autonavi.com/showpic/17066e47225c5e4f0c7eba1488231d37,http://store.is.autonavi.com/showpic/7845483b12e551d6d7ac9218f764b275
B02F37UGTQ,春满园(美伦会所店),餐饮服务;中餐厅;广东菜(粤菜),沿山路1号美伦会所,113.912064,22.486258,广东省,深圳市,南山区,3.5,87.00,0755-26868661;0755-26868662,http://store.is.autonavi.com/showpic/52e8c6130b585383a358fb3484fc68ef,http://store.is.autonavi.com/showpic/bf5a3f27d795061a7de0432ae2cebc85,http://store.is.autonavi.com/showpic/100d034177993b6f543f6683ed958684
B02F37TMX4,野妹火锅(上沙店),餐饮服务;中餐厅;火锅店,上沙九园村一巷13-2号(深发展旁),114.030276,22.524179,广东省,深圳市,福田区,3.0,78.00,0755-83423861,http://store.is.autonavi.com/showpic/93d09acdd9aaced5af15ded45d5f76ac,http://store.is.autonavi.com/showpic/3ba3108e22e81eb7bfaddd450899d35e,http://store.is.autonavi.com/showpic/57310d89d32dd27f3d276ff43b94409b
B02F305HMA,肯德基(华海店),餐饮服务;快餐厅;肯德基,福华路86号华海大厦1层,114.083431,22.537770,广东省,深圳市,福田区,3.5,28.00,0755-83039509;4008823823;0755-83298792,http://store.is.autonavi.com/showpic/23107a49f964cc42f41a9c790044e382,http://store.is.autonavi.com/showpic/807294cbf8e4e92067d5fdab4ab2e131,http://store.is.autonavi.com/showpic/3c49f12c310a0f1fb4594316d1a0fe7d
B02F38IHAU,肯德基(大梅沙店),餐饮服务;快餐厅;肯德基,大梅沙盐梅路大梅沙海景酒店三号楼一层,114.307914,22.594386,广东省,深圳市,盐田区,3.5,28.00,0755-25255683,http://store.is.autonavi.com/showpic/cf64ea8e22533b4bba864a3b10c322fb,http://store.is.autonavi.com/showpic/3cbe6a6c8d4757bcdd163106e1e93dbe,http://store.is.autonavi.com/showpic/469cb3f0891b33f1026707361ed3378c
B02F37V75B,聚味轩(保税区店),餐饮服务;中餐厅;广东菜(粤菜),保税区桂花路5号深圳福朋喜来登酒店4层,114.062332,22.511438,广东省,深圳市,福田区,4.0,35.00,0755-83588655;0755-83599999,http://store.is.autonavi.com/showpic/66ea9191364a82becd3a080ae54d792c,http://store.is.autonavi.com/showpic/65b9418509c627a705fb78d3070d1158,http://store.is.autonavi.com/showpic/17bd7215497d41e2b14b0970c0dc4ab1
B02F37UJEV,肯德基(蔚蓝海岸店),餐饮服务;快餐厅;肯德基,后海大道2120号,113.932649,22.507608,广东省,深圳市,南山区,3.5,20.00,0755-26498108,http://store.is.autonavi.com/showpic/cf64ea8e22533b4bba864a3b10c322fb,http://store.is.autonavi.com/showpic/464ce93408345798b1545b8b9299d141,http://store.is.autonavi.com/showpic/0fcbecc8fca2aa7538f2ff8050c58b32
B02F38IUGE,麦当劳(南园路店),餐饮服务;快餐厅;麦当劳,深南中路1095号城市广场中信地铁商场B1-2层,114.099848,22.539106,广东省,深圳市,福田区,3.5,23.00,0755-25060582;0755-25060581,http://store.is.autonavi.com/showpic/0b7b2d2ada04dbeb45b89fa775a66ebf,http://store.is.autonavi.com/showpic/36ca27a558411cc36130346ab0e1eee9,http://store.is.autonavi.com/showpic/c29a1704d13fde8f8b0c2b92634ff5d1
B02F37WH0U,肯德基(桃源村店),餐饮服务;快餐厅;肯德基,桃源村三期裙楼岁宝百货商场1层(桃源村东站),113.984360,22.557836,广东省,深圳市,南山区,3.5,35.00,0755-86312776;0755-86075422,http://store.is.autonavi.com/showpic/17066e47225c5e4f0c7eba1488231d37,http://store.is.autonavi.com/showpic/cf64ea8e22533b4bba864a3b10c322fb,http://store.is.autonavi.com/showpic/0646c7d15e4bde6c55719bfc238f0488
B02F37VSJ9,鼎厨川菜(怡景中心城),餐饮服务;中餐厅;四川菜(川菜),福华一路3号怡景中心城UG楼B1层2号,114.059077,22.535759,广东省,深圳市,福田区,4.0,81.00,0755-82801087,http://store.is.autonavi.com/showpic/cb05886f01790c0b39eea699a8cfa70e,http://store.is.autonavi.com/showpic/fe31fdefa251322b94db6bfbc10f46c5,http://store.is.autonavi.com/showpic/2d07b68f4df79dd56610bca228a01d46
B02F30A43X,麦当劳(南山分店),餐饮服务;快餐厅;麦当劳,南山大道2030愉康大厦1层55-62号,113.924723,22.527916,广东省,深圳市,南山区,3.5,32.00,0755-26668394;4008517517,http://store.is.autonavi.com/showpic/0b7b2d2ada04dbeb45b89fa775a66ebf,http://store.is.autonavi.com/showpic/b7c0d19d134c435a70ab8295e4ca9a25,http://store.is.autonavi.com/showpic/d4117a9fa69e344ed94e0b29588390e8
B02F37TRH5,湘粉人家(南油分店),餐饮服务;中餐厅;湖南菜(湘菜),南油大道粤海路2号4达大厦1楼(近公交南油大厦站),113.924993,22.509605,广东省,深圳市,南山区,3.0,17.00,0755-26420563;0755-26420593,http://store.is.autonavi.com/showpic/57c24cf31d3a88eadcab0e5fbad7f5ea,http://store.is.autonavi.com/showpic/e440914973320edbe4a1d829b3a9aa08,http://store.is.autonavi.com/showpic/77b96dc50e638e8e0521e252e4b68388
B02F37VXIG,太兴餐厅(东海坊店),餐饮服务;中餐厅;中餐厅,香林路12号东海花园二期,114.026040,22.538164,广东省,深圳市,福田区,4.0,72.00,0755-83076799,http://store.is.autonavi.com/showpic/12e9a5009787af5e8db3ea4f902372fa,http://store.is.autonavi.com/showpic/62b6d1832069153e087abeed8daa9965,http://store.is.autonavi.com/showpic/7dcc7b588850c4e9fd3edb8072e8b983
B02F306AUR,麦当劳(前海店),餐饮服务;快餐厅;麦当劳,前海路港湾丽都宝润商业广场1层,113.914876,22.531683,广东省,深圳市,南山区,3.5,36.00,0755-26160571,http://store.is.autonavi.com/showpic/0b7b2d2ada04dbeb45b89fa775a66ebf,http://store.is.autonavi.com/showpic/8f322bcc26734784914dd923f5064a6e,http://store.is.autonavi.com/showpic/654ce4b8fae21d60e59d1e6fc25286f0
B02F38TB0Q,美味轩(上步中路店),餐饮服务;中餐厅;广东菜(粤菜),上步中路1007号工会大厦附楼华霆酒店1层,114.095597,22.543196,广东省,深圳市,福田区,3.5,26.00,0755-83288000;0755-83288882,http://store.is.autonavi.com/showpic/83af4486b910e89906191baeafd67c9d,http://store.is.autonavi.com/showpic/55922683a310e499fdb58591,http://store.is.autonavi.com/showpic/2f2c21b51da0c322852d098e5e451776
B02F38TAOJ,美味轩(如意路),餐饮服务;中餐厅;中餐厅,爱联如意路230号,114.230752,22.698741,广东省,深圳市,龙岗区,3.5,17.00,13423786082,http://store.is.autonavi.com/showpic/ae6b30f27867ffc47d1e4f67b3d9670c,http://store.is.autonavi.com/showpic/318bea7440cf17c8556ad538311fd8f5,http://store.is.autonavi.com/showpic/de88d5800b07a09d9350010dc52bf6c4
B02F37VHSP,肯德基(香缤广场店),餐饮服务;快餐厅;肯德基,建安一路86-2号香槟广场1层,113.906561,22.561454,广东省,深圳市,宝安区,3.5,25.00,0755-27861480;0755-29454191,http://store.is.autonavi.com/showpic/cf64ea8e22533b4bba864a3b10c322fb,http://store.is.autonavi.com/showpic/a38e6efc319a3c8f7a725fb799b3dfb8,http://store.is.autonavi.com/showpic/957b7c5af0e05c44565886445c3705b5
B02F38TFHK,煌上煌(麒麟花园店),餐饮服务;中餐厅;中餐厅,南海大道3035号麒麟花园A区12栋1楼(豪方现代豪园公交站台旁),113.933022,22.545886,广东省,深圳市,南山区,3.5,19.00,13923486879,http://store.is.autonavi.com/showpic/d5bb4bb3349b2daf6d86c0a8567678e1,http://store.is.autonavi.com/showpic/17d62597b68925226574df4273a2a05b,http://store.is.autonavi.com/showpic/69830acd5ac1dfbeb59f7d1286e6f08d
B02F37UGYX,嘉旺(新秀分店),餐饮服务;快餐厅;快餐厅,新秀路57号1层,114.144022,22.546855,广东省,深圳市,罗湖区,3.5,21.00,0755-25124618;0755-25114802,http://store.is.autonavi.com/showpic/61189db1a0b03603740b602038a2e06f,http://store.is.autonavi.com/showpic/2283ccc4c9ed6449023ab3f5053be14a,http://store.is.autonavi.com/showpic/0e50a3601ea6854eed13becc1c24b507
B02F37VC2B,肯德基(凤凰店),餐饮服务;快餐厅;肯德基,凤凰路11号江月大厦1层,114.133843,22.547575,广东省,深圳市,罗湖区,3.5,32.00,0755-25797172;0755-25412095,http://store.is.autonavi.com/showpic/3d178453714cb6feffa1f5ec00328719,http://store.is.autonavi.com/showpic/7845483b12e551d6d7ac9218f764b275,http://store.is.autonavi.com/showpic/17066e47225c5e4f0c7eba1488231d37
B02F37WQIL,小肥羊火锅(梅龙路店),餐饮服务;中餐厅;火锅店,龙华梅陇路世纪春城四期2层,114.031431,22.627413,广东省,深圳市,龙华区,4.0,94.00,0755-29481126;0755-29481136,http://store.is.autonavi.com/showpic/443f3a439411e7840e4e5b1a23518755,http://store.is.autonavi.com/showpic/92979119dbf056b2ad0523d29b373055,http://store.is.autonavi.com/showpic/b9ed7e8436527ac9e88808579c3151fe
B02F37VWGT,真功夫(福中路店),餐饮服务;快餐厅;快餐厅,福中路29号华润万家1层,114.069374,22.544477,广东省,深圳市,福田区,3.5,26.00,0755-82897643,http://store.is.autonavi.com/showpic/ee6386530a08cd182b5e1f52d5f496f7,http://store.is.autonavi.com/showpic/69ea2affedaea1b8e94b0d4d9046c8c4,http://store.is.autonavi.com/showpic/e31cb87c5f77cc3981dbb33c1d2cca56
B02F37U6RS,必胜客欢乐餐厅(城市广场餐厅),餐饮服务;快餐厅;必胜客,深南中路1095号中信城市广场2层,114.097867,22.539549,广东省,深圳市,福田区,4.0,58.00,0755-25942012,http://store.is.autonavi.com/showpic/e2602fa86c1870489f95805339582780,http://store.is.autonavi.com/showpic/60893e07d8b56de8943cfe91964f5f0f,http://store.is.autonavi.com/showpic/cb58363022916ca80719568ab4ab4208
B02F30666E,肯德基(桃园店),餐饮服务;快餐厅;肯德基,常兴路131号南景苑大厦1-2层,113.920681,22.532272,广东省,深圳市,南山区,3.5,21.00,0755-26063079;0755-26063279;4008823823,http://store.is.autonavi.com/showpic/94d7f586fd1ad4bf41a21aee1cc50c9b,http://store.is.autonavi.com/showpic/7845483b12e551d6d7ac9218f764b275,http://store.is.autonavi.com/showpic/23107a49f964cc42f41a9c790044e382
B0FFF9S7S8,肯德基(泥岗店),餐饮服务;快餐厅;肯德基,泥岗西村1-2号,114.098578,22.566037,广东省,深圳市,罗湖区,3.5,24.00,0755-25931846;4008823823;0755-25926574,http://store.is.autonavi.com/showpic/cf64ea8e22533b4bba864a3b10c322fb,http://store.is.autonavi.com/showpic/39debce90ac9a194c06a91cae564beb4,http://store.is.autonavi.com/showpic/75ea4b4bd1fb8d40959081153b8f6ff8
B0FFF5RSHE,肯德基(罗湖口岸店),餐饮服务;快餐厅;肯德基,建设路罗湖口岸交通楼2层B交29号,114.118920,22.528696,广东省,深圳市,罗湖区,3.5,27.00,0755-82328662;4009200715,http://store.is.autonavi.com/showpic/464ce93408345798b1545b8b9299d141,http://store.is.autonavi.com/showpic/dc31d61959485a1f5843da46cecad9eb,http://store.is.autonavi.com/showpic/db3710fb347e9518433507887e2cbbf0
B02F38TCCV,沙县小吃(东隆路),餐饮服务;中餐厅;特色/地方风味餐厅,公明办事处东隆路98号福临住宿惠丰购物广场后面,113.907861,22.755172,广东省,深圳市,宝安区,3.5,20.00,0755-26498108,http://store.is.autonavi.com/showpic/98dcfbbcda17168deca0a88280a88b44,http://store.is.autonavi.com/showpic/b53e4b8773ce92d05be1e6ae9ea65394,http://store.is.autonavi.com/showpic/532f9c94933e80475ba1661f0b9bd074
B02F37VD7E,肯德基(东湖店),餐饮服务;快餐厅;肯德基,东湖路彩世界家园华润万方超市1层,114.142970,22.577804,广东省,深圳市,罗湖区,3.5,26.00,0755-25431362;4008823823;0755-25431658,http://store.is.autonavi.com/showpic/cf64ea8e22533b4bba864a3b10c322fb,http://store.is.autonavi.com/showpic/23107a49f964cc42f41a9c790044e382,http://store.is.autonavi.com/showpic/807294cbf8e4e92067d5fdab4ab2e131
